"city_id","city_jjk","longitude","latitude","towns_rhine"
1,"AACHEN",6.08389,50.7753,0
2,"ALTENBURG",12.4367,50.9931,0
3,"ALTONA",9.9333,53.55,0
4,"AMBERG",11.8633,49.4403,0
5,"ANDERNACH",7.40866,50.4261,1
6,"ANKLAM",13.696,53.8503,0
7,"ANNABERG",15.3761,47.8717,0
8,"ANSBACH",10.5719,49.3004,0
9,"ASCHAFFENBURG",9.13556,49.9807,0
10,"ASCHERSLEBEN",11.4619,51.7591,0
11,"AUGSBURG",10.8983,48.3714,0
12,"BADHERSFELD",9.70197,50.8701,0
13,"BADKREUZNACH",7.87313,49.844,0
14,"BADEN-BADEN",8.22852,48.7656,0
15,"BAMBERG",10.9028,49.8988,0
16,"BARMEN",7.15076,51.2562,0
17,"BAUTZEN",14.4238,51.1823,0
18,"BAYREUTH",11.5713,49.9456,0
19,"BECKUM",8.04255,51.7562,0
20,"BERLIN",13.405,52.52,0
21,"BERNBURG",11.7342,51.797,0
22,"BIBERACH",9.79015,48.0951,0
23,"BIELEFELD",8.5303,52.0213,0
24,"BINGEN",7.9046,49.9667,1
25,"BOCHUM",7.21624,51.4818,0
26,"BONN",7.09821,50.7374,1
27,"BORNA",12.4923,51.1246,0
28,"BRANDENBURG",12.5316,52.4125,0
29,"BRAUNSCHWEIG",10.5268,52.2689,0
30,"BREISACHAMRHEIN",7.58361,48.0348,1
31,"BREMEN",8.80169,53.0793,0
32,"BRUCHSAL",8.58441,49.125,0
33,"BURG",11.8554,52.2709,0
34,"BURSCHEID",7.11165,51.0855,0
35,"CELLE",10.0632,52.6168,0
36,"CHARLOTTENBURG",13.3035,52.5188,0
37,"CLAUSTHAL-ZELLERFELD",10.3407,51.808,0
38,"COBURG",10.9634,50.264,0
39,"COESFELD",7.16758,51.9383,0
40,"COTTBUS",14.3329,51.7563,0
41,"CRONENBERG",7.13333,51.2,0
42,"DARMSTADT",8.65176,49.8776,0
43,"DESSAU",12.2425,51.8222,0
44,"DINKELSBUEHL",10.3259,49.067,0
45,"DOEBELN",13.1167,51.1229,0
46,"DORTMUND",7.4653,51.5136,0
47,"DRESDEN",13.7373,51.0504,0
48,"DUEREN",6.48111,50.803,0
49,"DUESSELDORF",6.77346,51.2277,1
50,"DUISBURG",6.76233,51.4344,1
51,"EBERSBACH",14.5905,51.004,0
52,"EICHSTAETT",11.19,48.8913,0
53,"EILENBURG",12.6177,51.4598,0
54,"EINBECK",9.86831,51.8206,0
55,"EISENACH",10.3156,50.9803,0
56,"EISLEBEN",11.5577,51.5195,0
57,"ELBERFELD",7.15358,51.2491,0
58,"EMDEN",7.20601,53.3594,0
59,"EMMERICH",6.25173,51.8396,1
60,"ERFURT",11.0299,50.9848,0
61,"ERLANGEN",11.0143,49.5907,0
62,"ESCHWEILER",6.26307,50.8107,0
63,"ESSEN",7.01156,51.4556,0
64,"ESSLINGEN",9.32011,48.7433,0
65,"FLENSBURG",9.447,54.7937,0
66,"FORCHHEIM",11.0699,49.7213,0
67,"FRANKENBERG",13.0404,50.909,0
68,"FRANKENTHAL",8.35659,49.5422,1
69,"FRANKFURTAMMAIN",8.68213,50.1109,0
70,"FRANKFURTANDERODER",14.5381,52.3425,0
71,"FREIBERG",13.3417,50.9128,0
72,"FREIBURG",7.8421,47.999,0
73,"FREISING",11.7412,48.4029,0
74,"FUERTH",10.9887,49.4771,0
75,"FULDA",9.68084,50.5558,0
76,"GELNHAUSEN",9.18637,50.2046,0
77,"GERA",12.0807,50.8851,0
78,"GIESSEN",8.69093,50.5871,0
79,"GLAUCHAU",12.5452,50.8188,0
80,"GLUECKSTADT",9.42609,53.7912,0
81,"GOEPPINGEN",9.65125,48.7054,0
82,"GOERLITZ",14.9687,51.1506,0
83,"GOETTINGEN",9.9158,51.5413,0
84,"GOSLAR",10.4466,51.9083,0
85,"GOTHA",10.7093,50.9469,0
86,"GREIFSWALD",13.3923,54.0865,0
87,"GRIMMA",12.7202,51.2364,0
88,"GROSSENHAIN",13.5313,51.2912,0
89,"GUESTROW",12.1895,53.8032,0
90,"HALBERSTADT",11.0537,51.8944,0
91,"HALLE",11.9688,51.497,0
92,"HAMBURG",9.99368,53.5511,0
93,"HAMELN",9.36576,52.1087,0
94,"HAMM",7.81598,51.6739,0
95,"HANAU",8.93063,50.1258,0
96,"HANNOVER",9.73201,52.3759,0
97,"HARBURG",9.98358,53.4608,0
98,"HARDENBERG",6.61669,52.5754,0
99,"HATTINGEN",7.19116,51.4018,0
100,"HEIDELBERG",8.67243,49.3988,0
101,"HEILBRONN",9.21088,49.1427,0
102,"HELMSTEDT",11.0095,52.229,0
103,"HERFORD",8.6794,52.1178,0
104,"HILDESHEIM",9.96587,52.141,0
105,"HOF",11.9128,50.3135,0
106,"HUECKESWAGEN",7.33282,51.1484,0
107,"HUSUM",9.06006,54.4838,0
108,"IBBENBUEREN",7.72043,52.2796,0
109,"IENA",11.5892,50.9271,0
110,"INGOLSTADT",11.4258,48.7665,0
111,"ISERLOHN",7.67439,51.3732,0
112,"KAISERSLAUTERN",7.74913,49.4401,0
113,"KARL-MARX-STADT",12.9186,50.8323,0
114,"KARLSRUHE",8.37994,49.0091,1
115,"KASSEL",9.47975,51.3127,0
116,"KAUFBEUREN",10.626,47.883,0
117,"KEMPTEN",10.3167,47.7333,0
118,"KIEL",10.1228,54.3233,0
119,"KLEVE",6.12954,51.7867,1
120,"KOBLENZ",7.58991,50.36,1
121,"KOELN",6.96028,50.9375,1
122,"KOENIGSWINTER",7.18618,50.692,1
123,"KOETHEN",11.9667,51.75,0
124,"KONSTANZ",9.17324,47.6779,1
125,"KREFELD",6.58534,51.3388,1
126,"KREMPE",9.49017,53.8368,0
127,"LAHR",7.8723,48.3394,1
128,"LANDAU",8.11856,49.1989,0
129,"LANDSHUT",12.1459,48.5392,0
130,"LANGENSALZA",10.6445,51.1093,0
131,"LAUINGEN",10.7852,52.2683,0
132,"LEER",7.4679,53.2357,0
133,"LEIPZIG",12.3731,51.3397,0
134,"LIPPSTADT",8.34065,51.6712,0
135,"LUDWIGSBURG",9.19546,48.8941,0
136,"LUEBECK",10.6871,53.8659,0
137,"LUENEBURG",10.4115,53.2464,0
138,"MAGDEBURG",11.6289,52.1308,0
139,"MAINZ",8.24725,49.9929,1
140,"MANNHEIM",8.46604,49.4875,1
141,"MARBURG",8.76679,50.8022,0
142,"MARIENBERG",13.1623,50.6504,0
143,"MECKLENBURG",11.4667,53.85,0
144,"MEININGEN",10.419,50.5739,0
145,"MEISSEN",13.4977,51.1618,0
146,"MEMMINGEN",10.1802,47.9838,0
147,"MERSEBURG",11.9917,51.3563,0
148,"METTMANN",6.97403,51.2507,0
149,"MICHELSTADT",9.00416,49.68,0
150,"MINDEN",8.89492,52.2965,0
151,"MITTWEIDA",12.9741,50.9853,0
152,"MUELHEIMANDERRUHR",6.88452,51.4186,1
153,"MUENCHEN",11.582,48.1351,0
154,"MUENSTER",7.62613,51.9607,0
155,"NAUEN",12.8815,52.6069,0
156,"NAUMBURG",11.8049,51.1515,0
157,"NEUBRANDENBURG",13.2779,53.5678,0
158,"NEUBURG",11.1888,48.7303,0
159,"NEURUPPIN",12.7991,52.9155,0
160,"NEUSS",6.68795,51.2042,1
161,"NEUSTRELITZ",13.073,53.3601,0
162,"NEUWIED",7.46164,50.4427,1
163,"NOERDLINGEN",10.4981,48.8502,0
164,"NORDEN",7.19672,53.5988,0
165,"NORDHAUSEN",10.7916,51.4991,0
166,"NUERNBERG",11.0768,49.452,0
167,"OFFENBACH",8.77608,50.0956,0
168,"OLDENBURG",8.21455,53.1435,0
169,"OPPENHEIM",8.36027,49.8519,1
170,"OSNABRUECK",8.04718,52.2799,0
171,"PADERBORN",8.75751,51.7189,0
172,"PASSAU",13.4319,48.5667,0
173,"PFORZHEIM",8.69329,48.8926,0
174,"PIRMASENS",7.60022,49.2016,0
175,"PIRNA",13.9419,50.9625,0
176,"PLAUEN",12.1369,50.4976,0
177,"POTSDAM",13.0727,52.3942,0
178,"PRENZLAU",13.8633,53.3173,0
179,"QUEDLINBURG",11.1414,51.7921,0
180,"RADEVORMWALD",7.35909,51.2016,0
181,"RATZEBURG",10.7711,53.699,0
182,"RAVENSBURG",9.61213,47.7783,0
183,"REGENSBURG",12.1009,49.0145,0
184,"REICHENBACH",12.3031,50.6208,0
185,"REMSCHEID",7.18903,51.1789,0
186,"RENDSBURG",9.65899,54.3075,0
187,"REUTLINGEN",9.2038,48.5069,0
188,"RHEINE",7.44341,52.2816,0
189,"RHEYDT",6.44696,51.1687,0
190,"ROCHLITZ",12.7944,51.0507,0
191,"ROSTOCK",12.1004,54.0834,0
192,"ROTHENBURGOBDERTAUBER",10.1867,49.3802,0
193,"ROTTENBURGAMNECKAR",8.94095,48.4791,0
194,"SAARBRUECKEN",6.99693,49.2402,0
195,"SAARLOUIS",6.75229,49.3135,0
196,"SALZWEDEL",11.1574,52.8531,0
197,"SCHLESWIG",9.56323,54.5239,0
198,"SCHMALKALDEN",10.4546,50.7234,0
199,"SCHNEEBERG",12.6386,50.5955,0
200,"SCHORNDORF",9.52962,48.8015,0
201,"SCHWABACH",11.0247,49.3285,0
202,"SCHWAEBISCHGMUEND",9.80457,48.7994,0
203,"SCHWAEBISCHHALL",9.74559,49.1167,0
204,"SCHWEINFURT",10.2194,50.0492,0
205,"SCHWERIN",11.4012,53.6355,0
206,"SIEGEN",8.02096,50.8838,0
207,"SOEST",8.10575,51.5711,0
208,"SOLINGEN",7.05426,51.1704,0
209,"SPANDAU",13.1667,52.5333,0
210,"SPEYER",8.43622,49.3205,1
211,"STADE",9.47095,53.5929,0
212,"STENDAL",11.8538,52.6041,0
213,"STRALSUND",13.0877,54.2994,0
214,"STRAUBING",12.5802,48.8777,0
215,"STUTTGART",9.18176,48.7754,0
216,"SUHL",10.6881,50.6077,0
217,"TOENNING",8.93811,54.3157,0
218,"TORGAU",12.9916,51.5579,0
219,"TRIER",6.63714,49.75,0
220,"TUEBINGEN",9.05764,48.5216,0
221,"UEBERLINGEN",9.17028,47.7662,0
222,"ULM",9.98761,48.4011,0
223,"UNNA",7.68531,51.5426,0
224,"VELBERT",7.04268,51.3371,0
225,"VERDEN",9.23783,52.925,0
226,"VIERSEN",6.39652,51.2555,0
227,"WARBURG",9.14519,51.4899,0
228,"WEIMAR",11.3225,50.9847,0
229,"WEISSENFELS",11.9689,51.1973,0
230,"WERDEN",7.003,51.3884,0
231,"WESEL",6.62957,51.6643,1
232,"WETZLAR",8.50816,50.559,0
233,"WIESBADEN",8.24334,50.0631,1
234,"WISMAR",11.4516,53.8979,0
235,"WITTENBERG",12.628,51.874,0
236,"WOLFENBUETTEL",10.5408,52.164,0
237,"WORMS",8.35072,49.6341,1
238,"WUELFRATH",7.03496,51.2803,0
239,"WUERZBURG",9.95357,49.7916,0
240,"XANTEN",6.44865,51.6571,1
241,"ZEITZ",12.1403,51.0443,0
242,"ZERBST",12.0877,51.9646,0
243,"ZITTAU",14.803,50.9,0
244,"ZWEIBRUECKEN",7.36554,49.2491,0
245,"ZWICKAU",12.4734,50.7102,0
246,"BADISCHL",13.621,47.7124,0
247,"DORNBIRN",9.74379,47.4124,1
248,"EISENSTADT",16.528,47.8464,0
249,"GMUNDEN",13.7993,47.9184,0
250,"GRAZ",15.4395,47.0707,0
251,"INNSBRUCK",11.4041,47.2692,0
252,"KLAGENFURT",14.309,46.6279,0
253,"KREMS",15.6038,48.41,0
254,"LINZ",14.2858,48.3069,0
255,"MATTERSBURG",16.3966,47.7362,0
256,"NEUNKIRCHEN",16.0812,47.7261,0
257,"SALZBURG",13.055,47.8095,0
258,"SCHWAZ",11.7058,47.3502,0
259,"STEYR",14.4183,48.0501,0
260,"WELS",14.0366,48.1654,0
261,"WIEN",16.3738,48.2082,0
262,"WIENERNEUSTADT",16.2332,47.8028,0
263,"AALST",4.04095,50.9378,0
264,"AARSCHOT",4.83652,50.986,0
265,"ANTWERPEN",4.40246,51.2194,0
266,"ARDOOIE",3.19912,50.9768,0
267,"ARLON",5.81048,49.6851,0
268,"ATH",3.77699,50.6304,0
269,"BEVEREN",4.25816,51.2132,0
270,"BINCHE",4.1659,50.4122,0
271,"BOUILLON",5.0819,49.7956,0
272,"BRUGGE",3.2247,51.2093,0
273,"BRUXELLES",4.35171,50.8503,0
274,"CHARLEROI",4.44464,50.4108,0
275,"DEINZE",3.52359,50.9875,0
276,"DENDERMONDE",4.10195,51.0255,0
277,"DIEST",5.05016,50.9896,0
278,"DINANT",4.91275,50.2605,0
279,"DOUR",3.78279,50.4,0
280,"EEKLOO",3.56389,51.1853,0
281,"ENGHIEN",2.30348,48.9709,0
282,"EUPEN",6.03371,50.6292,0
283,"EVERGEM",3.70672,51.11,0
284,"GENT",3.71742,51.0543,0
285,"GEERAARDSBERGEN",3.87516,50.7707,0
286,"HALLE",4.23251,50.7376,0
287,"HAMME",4.14027,51.0902,0
288,"HASSELT",5.33248,50.9307,0
289,"HUY",5.23967,50.5187,0
290,"IEPER",2.87794,50.8492,0
291,"IZEGEM",3.21322,50.9181,0
292,"JUMET",4.43703,50.4427,0
293,"KORTRIJK",3.25773,50.8195,0
294,"KRUISHOUTEM",3.52814,50.9045,0
295,"LEUVEN",4.70433,50.8776,0
296,"LIEGE",5.57967,50.6326,0
297,"LIER",4.57151,51.1302,0
298,"LOKEREN",3.99407,51.1023,0
299,"MALMEDY",6.02833,50.4246,0
300,"MECHELEN",4.47754,51.0259,0
301,"MENEN",3.12134,50.7963,0
302,"MEULEBEKE",3.28637,50.9506,0
303,"MONS",3.95666,50.4542,0
304,"NAMUR",4.87199,50.4674,0
305,"NIEUWPOORT",2.74802,51.1285,0
306,"NIVELLES",4.32851,50.5979,0
307,"OOSTENDE",2.9,51.2167,0
308,"OUDENAARDE",3.60137,50.847,0
309,"PERUWELZ",3.59367,50.5106,0
310,"POPERINGE",2.72679,50.855,0
311,"ROESELARE",3.12945,50.9499,0
312,"RONSE",3.60051,50.7505,0
313,"RUISELEDE",3.39705,51.0413,0
314,"SOIGNIES",4.07069,50.5764,0
315,"SPA",5.86432,50.4924,0
316,"ST-NIKLAAS",4.15444,51.1559,0
317,"ST-TRUIDEN",5.18625,50.8157,0
318,"TEMSE",4.21275,51.1296,0
319,"THUIN",4.28733,50.3408,0
320,"TIELT",4.9047,50.9409,0
321,"TIENEN",4.93622,50.8106,0
322,"TONGEREN",5.47449,50.7842,0
323,"TORHOUT",3.10157,51.065,0
324,"TOURNAI",3.38793,50.6056,0
325,"TURNHOUT",4.93756,51.3217,0
326,"VERVIERS",5.8656,50.5911,0
327,"VEURNE",2.66803,51.0732,0
328,"WAREGEM",3.42317,50.8869,0
329,"WAVRE",4.61281,50.7159,0
330,"WETTEREN",3.88967,51.0029,0
331,"WINGENE",3.2748,51.0587,0
332,"ZELE",4.04035,51.0701,0
333,"ZOMERGEM",3.56445,51.1193,0
334,"ZOUTLEEUW",5.10442,50.8323,0
357,"AALBORG",9.92175,57.0488,0
358,"AARHUS",10.2039,56.1629,0
359,"HELSINGOR",12.5921,56.0308,0
360,"KOBENHAVN",12.5683,55.6761,0
361,"ODENSE",10.4024,55.4038,0
362,"RANDERS",10.0365,56.4606,0
363,"RIBE",8.77467,55.3269,0
364,"ROSKILDE",12.0878,55.6419,0
365,"SVENDBORG",10.6073,55.0674,0
366,"VIBORG",9.39635,56.452,0
367,"ADRA",-3.01761,36.7502,0
368,"AGREDA",-1.92025,41.8535,0
369,"AGUILAR",-4.65666,37.5138,0
370,"AGUILAS",-1.58277,37.4118,0
371,"ALAEJOS",-5.21753,41.307,0
372,"ALBA",-1.34572,40.618,0
373,"ALBACETE",-1.85854,38.9943,0
374,"ALBUQUERQUE",-7,39.2167,0
375,"ALCALA-DE-HENARES",-3.36354,40.482,0
376,"ALCALA-LA-REAL",-3.92196,37.4661,0
377,"ALCANIZ",-0.133537,41.051,0
378,"ALCARAZ",-2.49071,38.6665,0
379,"ALCAZAR-DE-SAN-JUAN",-3.2101,39.3901,0
380,"ALCIRA",-0.433364,39.1512,0
381,"ALCOY",-0.478538,38.699,0
382,"ALFARO",-1.74766,42.1769,0
383,"ALGECIRAS",-5.45391,36.133,0
384,"ALICANTE",-0.490686,38.346,0
385,"ALLARIZ",-7.80055,42.1895,0
386,"ALMAGRO",-3.70896,38.8862,0
387,"ALMANSA",-1.09962,38.866,0
388,"ALMENDRALEJO",-6.4073,38.6814,0
389,"ALMERIA",-2.46371,36.834,0
390,"ALMODOVAR",-4.17569,38.7083,0
391,"ALTEA",-0.047726,38.6006,0
392,"ANDUJAR",-4.05491,38.0405,0
393,"ANTEQUERA",-4.55937,37.02,0
394,"ARACENA",-6.56189,37.8935,0
395,"ARANDA-DE-DUERO",-3.68964,41.6738,0
396,"ARCHINODA",-4.3833,37.1,0
397,"ARCOS-DE-LA-FRONTERA",-5.80983,36.7547,0
398,"AREVALO",-4.71874,41.059,0
399,"ARJONA",-4.06177,37.9357,0
400,"ASPE",-0.765591,38.3463,0
401,"ASTORGA",-6.05325,42.4549,0
402,"AVILA",-4.69582,40.6626,0
403,"AZUAGA",-5.67781,38.2589,0
404,"BADAJOZ",-6.97065,38.8794,0
405,"BADALONA",2.24503,41.447,0
406,"BAENA",-4.3266,37.6136,0
407,"BAEZA",-3.46932,37.9979,0
408,"BARBASTRO",0.12844,42.036,0
409,"BARCELONA",2.1734,41.3851,0
410,"BAZA",-2.77697,37.4895,0
411,"BECERRIL",-4.64144,42.1109,0
412,"BEJAR",-5.76888,40.3886,0
413,"BERJA",-2.94628,36.8484,0
414,"BILBAO",-2.93499,43.263,0
415,"BROZAS",-6.77579,39.6129,0
416,"BUENDIA",-2.75683,40.3667,0
417,"BUJALANCE",-4.37829,37.8924,0
418,"BURGOS",-3.69691,42.344,0
419,"BURRIANA",-0.0842113,39.8896,0
420,"CABRA",-4.43493,37.4718,0
421,"CACERES",-6.37242,39.4753,0
422,"CADIZ",-6.2886,36.5271,0
423,"CALAHORRA",-1.96731,42.3074,0
424,"CALATAYUD",-1.64249,41.353,0
425,"CALLOSA-DE-SEGURA",-0.87664,38.1199,0
426,"CAMPO-DE-CRIPTANA",-3.12446,39.3994,0
427,"CANGAS-DE-ONIS",-5.13101,43.3506,0
428,"CARAVACA",-1.86092,38.1042,0
429,"CARCAGENTE",-0.421944,39.1016,0
430,"CARMONA",-5.64182,37.4713,0
431,"CARTAGENA",-0.996584,37.6257,0
432,"CASPE",-0.042955,41.2356,0
433,"CASTELLON-DE-LA-PLANA",-0.0449499,39.9845,0
434,"CAZORLA",-3.00381,37.9125,0
435,"CERVERA",1.27274,41.6727,0
436,"CHINCHON",-3.42217,40.1403,0
437,"CIEMPOZUELOS",-3.62283,40.1573,0
438,"CIEZA",-1.42301,38.2397,0
439,"CIUDAD-REAL",-3.92738,38.9848,0
440,"CIUDAD-RODRIGO",-6.53131,40.6021,0
441,"COLMENAR-DE-OREJA",-3.39055,40.1073,0
442,"COLMENAR-VIEJO",-3.77105,40.6626,0
443,"CONSTANTINA",-5.62017,37.8717,0
444,"CONSUEGRA",-3.6083,39.4596,0
445,"CORDOBA",-4.77938,37.8882,0
446,"CORRAL",-3.16223,39.7595,0
447,"CREVILLENTE",-0.80505,38.2485,0
448,"CUENCA",-2.13672,40.0705,0
449,"CULLERA",-0.25379,39.1632,0
450,"DAIMIEL",-3.61285,39.0695,0
451,"DALIAS",-2.87143,36.8214,0
452,"DON-BENITO",-5.8619,38.9545,0
453,"ECIJA",-5.08267,37.5415,0
454,"ELCHE",-0.712561,38.2699,0
455,"ELVIRA",-4.78361,36.5025,0
456,"ESTEPA",-4.8778,37.2895,0
457,"FELANITX",3.1483,39.4697,0
458,"FERROL",-8.21935,43.4896,0
459,"FIGUERAS",2.96127,42.2664,0
460,"FRAGA",0.340717,41.522,0
461,"FUENTE-DEL-MAESTRE",-6.44604,38.5312,0
462,"FUENTE-EL-SAUCO",-3.13987,40.4453,0
463,"FUENTES-DE-ANDALUCIA",-5.34406,37.4633,0
464,"GANDIA",-0.184467,38.968,0
465,"GERONA",2.82143,41.9794,0
466,"GETAFE",-3.73239,40.3083,0
467,"GIBRALTAR",-5.35358,36.1408,0
468,"GIJON",-5.66112,43.5322,0
469,"GRANADA",-3.59856,37.1773,0
470,"GUADALAJARA",-3.16221,40.6312,0
471,"GUADIX",-3.14033,37.3011,0
472,"HELLIN",-1.69892,38.5096,0
473,"HINOJOSA-DEL-DUQUE",-5.14244,38.5008,0
474,"HORNACHOS",-6.06794,38.553,0
475,"HUELVA",-6.94472,37.2614,0
476,"HUERCAL-OVERA",-1.94333,37.3894,0
477,"HUESCA",-0.410621,42.1373,0
478,"HUETE",-2.68972,40.1435,0
479,"IGUALADA",1.61712,41.5839,0
480,"JACA",-0.547055,42.5717,0
481,"JAEN",-3.78491,37.7796,0
482,"JATIVA",-0.523547,38.99,0
483,"JAVEA",0.166081,38.789,0
484,"JEREZ-DE-LA-FRONTERA",-6.13243,36.6936,0
485,"JEREZ-DE-LOS-CABALLEROS",-6.7747,38.3212,0
486,"JUMILLA",-1.32416,38.4794,0
487,"LACORUNA",-8.41154,43.3623,0
488,"LEBRIJA",-6.07347,36.923,0
489,"LEON",-5.5671,42.5987,0
490,"LERIDA",0.620015,41.6176,0
491,"LILLO",-3.30254,39.719,0
492,"LINARES",-3.62959,38.0981,0
493,"LIRIA",-0.658333,39.7119,0
494,"LLERENA",-6.01108,38.2439,0
495,"LLUMMAYOR",2.89167,39.4908,0
496,"LOGRONO",-2.44499,42.4627,0
497,"LOJA",-4.14907,37.1662,0
498,"LORA-DEL-RIO",-5.52987,37.6576,0
499,"LORCA",-1.69684,37.6736,0
500,"LUCENA",-4.48532,37.4056,0
501,"LUGO",-7.55676,43.0097,0
502,"MADRID",-3.70379,40.4168,0
503,"MAHON",4.25962,39.8873,0
504,"MALAGA",-4.42127,36.7213,0
505,"MANACOR",3.20953,39.5697,0
506,"MANRESA",1.82252,41.7293,0
507,"MANZANARES",-3.37421,38.9958,0
508,"MARCHENA",-5.41467,37.3274,0
509,"MARTOS",-3.96884,37.7221,0
510,"MATARO",2.44474,41.5381,0
511,"MEDINA-DE-RIO-SECO",-5.04138,41.8842,0
512,"MEDINA-DEL-CAMPO",-4.91548,41.3082,0
513,"MEMBRILLA",-3.34614,38.9726,0
514,"MERIDA",-6.34223,38.9143,0
515,"MONDEJAR",-3.10833,40.3239,0
516,"MONDONEDO",-7.36385,43.4286,0
517,"MONFORTE-DE-LEMOS",-7.51581,42.519,0
518,"MONOVAR",-0.838496,38.4339,0
519,"MONTEFRIO",-4.00513,37.3209,0
520,"MONTILLA",-4.63897,37.5868,0
521,"MONTORO",-4.3835,38.0227,0
522,"MORATALLA",-1.88977,38.1913,0
523,"MORELLA",-0.099796,40.6221,0
524,"MORON-DE-LA-FRONTERA",-5.44954,37.119,0
525,"MOTRIL",-3.51686,36.7484,0
526,"MULA",-1.49217,38.0397,0
527,"MURCIA",-1.13046,37.9923,0
528,"NAJERA",-2.72857,42.4181,0
529,"NIJAR",-2.20677,36.9659,0
530,"NOVELDA",-0.766847,38.3841,0
531,"OCANA",-3.49826,39.9569,0
532,"OLIVENZA",-7.10267,38.6826,0
533,"OLOT",2.48802,42.1822,0
534,"OLVERA",-5.25996,36.9352,0
535,"ONTENIENTE",-0.606393,38.8221,0
536,"ORENSE",-7.86388,42.3358,0
537,"ORIHUELA",-0.948005,38.0856,0
538,"OSUNA",-5.10331,37.2374,0
539,"OVIEDO",-5.84939,43.3619,0
540,"PALENCIA",-4.52893,42.0095,0
541,"PALMA",2.64663,39.5712,0
542,"PAMPLONA",-1.64827,42.8117,0
543,"PAREDES-DE-NAVA",-4.69284,42.1516,0
544,"PASTRANA",-2.92129,40.4201,0
545,"PEGO",-0.115644,38.8429,0
546,"PENARANDA",-5.19656,40.9021,0
547,"PLASENCIA",-6.08702,40.0302,0
548,"PONTEVEDRA",-8.64462,42.4299,0
549,"PORCUNA",-4.18465,37.8759,0
550,"POZOBLANCO",-4.84701,38.3778,0
551,"PRIEGO-DE-CORDOBA",-4.19462,37.4387,0
552,"PUENTE-GENIL",-4.76878,37.3918,0
553,"PUERTO-DE-SANTA-MARIA",-6.23291,36.6006,0
554,"PUERTO-REAL",-6.19442,36.5304,0
555,"PUIGCERDA",1.92912,42.4335,0
556,"QUIROGA",-7.26933,42.476,0
557,"REQUENA",-1.10031,39.4909,0
558,"REUS",1.10553,41.1498,0
559,"RONDA",-5.16123,36.7462,0
560,"ROTA",-6.36298,36.6263,0
561,"RUTE",-4.36833,37.3263,0
562,"SABADELL",2.10861,41.5463,0
563,"SALAMANCA",-5.66354,40.9701,0
564,"SAN-CLEMENTE",-2.42944,39.4039,0
565,"SAN-FERNANDO",-6.19659,36.4719,0
566,"SAN-LUCAR-DE-BARRAMEDA",-6.35297,36.7726,0
567,"SAN-ROQUE",-5.38443,36.2105,0
568,"SAN-SEBASTIAN",-1.98123,43.3183,0
569,"SANTANDER",-3.80998,43.4623,0
570,"SANTIAGO",-8.5463,42.8804,0
571,"SEGORBE",-0.488394,39.8486,0
572,"SEGOVIA",-4.10881,40.9429,0
573,"SERON",-2.51141,37.3432,0
574,"SEVILLA",-5.98233,37.3881,0
575,"SOLANA",-4.0737,38.4659,0
576,"SOLLER",2.71579,39.7671,0
577,"SORIA",-2.47903,41.7666,0
578,"TAFALLA",-1.67768,42.5268,0
579,"TALAVERA",-4.83045,39.9629,0
580,"TARAZONA",-1.72212,41.9029,0
581,"TARIFA",-5.60445,36.0143,0
582,"TARRAGONA",1.24521,41.119,0
583,"TARRASA",2.00887,41.5632,0
584,"TEMBLEQUE",-3.50414,39.6958,0
585,"TERUEL",-1.10643,40.3457,0
586,"TINEO",-6.40883,43.3339,0
587,"TOLEDO",-4.0244,39.8567,0
588,"TOLOSA",-2.07509,43.1348,0
589,"TOMELLOSO",-3.02145,39.1584,0
590,"TORDESILLAS",-4.99576,41.5047,0
591,"TORO",-5.39414,41.5247,0
592,"TORRE-DON-JIMENO",-4.04911,37.8031,0
593,"TORREVIEJA",-0.680823,37.9847,0
594,"TORTOSA",0.521442,40.8126,0
595,"TOTANA",-1.50014,37.7706,0
596,"TRUJILLO",-5.87786,39.4571,0
597,"TUDELA",-1.60632,42.0614,0
598,"TUY",-8.64906,42.0579,0
599,"UBEDA",-3.37125,38.0114,0
600,"UTIEL",-1.20111,39.5682,0
601,"UTRERA",-5.77951,37.1848,0
602,"VALDEPENAS",-3.38761,38.7605,0
603,"VALENCIA",-0.376288,39.4699,0
604,"VALL-DE-UJO",-0.234806,39.8189,0
605,"VALLADOLID",-4.72453,41.6523,0
606,"VALLS",1.24946,41.2854,0
607,"VELEZ-BLANCO",-2.09734,37.6922,0
608,"VELEZ-MALAGA",-4.10056,36.7799,0
609,"VELEZ-RUBIO",-2.08018,37.6491,0
610,"VICH",3.42549,46.1319,0
611,"VIGO",-8.72073,42.2406,0
612,"VILLA-ROBLEDO",-2.60483,39.2667,0
613,"VILLACARRILLO",-3.07918,38.12,0
614,"VILLAFRANCA-DE-LOS-BARROS",-6.33441,38.5593,0
615,"VILLAJOYOSA",-0.228581,38.508,0
616,"VILLALON",-5.03488,42.0988,0
617,"VILLANUEVA-DE-CORDOBA",-4.62814,38.3209,0
618,"VILLANUEVA-DE-LA-JARA",-1.95587,39.4402,0
619,"VILLANUEVA-DE-LA-SERENA",-5.79973,38.9736,0
620,"VILLANUEVA-DE-LOS-INFANTE",-6.13573,37.3981,0
621,"VILLANUEVA-Y-GELTRU",1.72745,41.2152,0
622,"VILLARREAL",-0.100593,39.9398,0
623,"VILLENA",-0.861221,38.6318,0
624,"VINAROZ",0.47473,40.468,0
625,"VITORIA",-2.68179,42.8592,0
626,"VIVERO",-7.59453,43.6643,0
627,"YECLA",-1.11011,38.6122,0
628,"YEPES",-3.62558,39.9029,0
629,"YNIESTA",-1.74925,39.4408,0
630,"ZAMORA",-5.74679,41.5035,0
631,"ZARAGOZA",-0.889581,41.6488,0
640,"ABBEVILLE",1.83683,50.1055,0
641,"AGDE",3.47083,43.3125,0
642,"AGEN",0.616363,44.2031,0
643,"AIRE",-0.262294,43.7001,0
644,"AIX",5.44743,43.5297,0
645,"AJACCIO",8.73864,41.9192,0
646,"ALBI",2.14634,43.9269,0
647,"ALENCON",0.091266,48.4329,0
648,"ALES",4.08335,44.1272,0
649,"AMBERT",3.73931,45.5495,0
650,"AMBOISE",0.984407,47.4133,0
651,"AMIENS",2.29575,49.8941,0
652,"ANDUZE",3.98651,44.0534,0
653,"ANGERS",-0.563166,47.4784,0
654,"ANGOULEME",0.156237,45.6484,0
655,"ANNECY",6.12938,45.8992,0
656,"ANNONAY",4.66735,45.2394,0
657,"ANTIBES",7.1251,43.5804,0
658,"APT",5.39544,43.8765,0
659,"ARBOIS",5.77234,46.9029,0
660,"ARGENTAN",-0.016566,48.744,0
661,"ARGENTEUIL",2.24895,48.9474,0
662,"ARLES",4.6275,43.6767,0
663,"ARMENTIERES",2.88422,50.6917,0
664,"ARRAS",2.77753,50.291,0
665,"AUBAGNE",5.56934,43.2922,0
666,"AUCH",0.586709,43.6464,0
667,"AURILLAC",2.445,44.931,0
668,"AUTUN",4.30157,46.9509,0
669,"AUXERRE",3.57378,47.7982,0
670,"AVALLON",3.90772,47.4882,0
671,"AVIGNON",4.80553,43.9493,0
672,"AVRANCHES",-1.36166,48.6868,0
673,"BAGNERES-DE-BIGORRE",0.149105,43.0651,0
674,"BAGNOLS",2.63114,45.501,0
675,"BAILLEUL",2.73559,50.7365,0
676,"BAR-LE-DUC",5.15824,48.7736,0
677,"BARCELONNETTE",6.65046,44.3863,0
678,"BASTIA",9.45088,42.6973,0
679,"BAYEUX",-0.70314,49.2764,0
680,"BAYONNE",-1.47484,43.4929,0
681,"BEAUCAIRE",4.64427,43.8072,0
682,"BEAUGENCY",1.63352,47.7781,0
683,"BEAUNE",4.84,47.026,0
684,"BEAUVAIS",2.08188,49.4296,0
685,"BEDARRIEUX",3.16737,43.6101,0
686,"BELFORT",6.86385,47.6397,0
687,"BERGERAC",0.483392,44.8538,0
688,"BERGUES",2.43332,50.9685,0
689,"BERNAY",0.597811,49.0893,0
690,"BESANCON",6.02405,47.2378,0
691,"BETHUNE",2.63926,50.531,0
692,"BEZIERS",3.2158,43.3442,0
693,"BILLOM",3.33897,45.7239,0
694,"BLOIS",1.33595,47.5861,0
695,"BONIFACIO",9.15927,41.3872,0
696,"BONNETABLE",0.424766,48.1788,0
697,"BORDEAUX",-0.57918,44.8378,0
698,"BOULOGNE",1.61333,50.7252,0
699,"BOURBOURG",2.19651,50.9464,0
700,"BOURG-EN-BRESSE",5.21925,46.2028,0
701,"BOURGES",2.39878,47.081,0
702,"BREST",-4.48608,48.3904,0
703,"BRIGNOLES",6.06119,43.4066,0
704,"BRIOUDE",3.38648,45.2956,0
705,"BRIVE",1.53394,45.1596,0
706,"BROUAGE",-1.0744,45.8505,0
707,"CAEN",-0.370679,49.1829,0
708,"CAHORS",1.44199,44.4475,0
709,"CALAIS",1.85869,50.9513,0
710,"CAMBRAI",3.23663,50.1735,0
711,"CANNES",7.01737,43.5528,0
712,"CARCASSONNE",2.35366,43.2122,0
713,"CARPENTRAS",5.04872,44.0556,0
714,"CASTELNAUDARY",1.95333,43.3171,0
715,"CASTELSARRASIN",1.10713,44.0399,0
716,"CASTRES",2.2413,43.6062,0
717,"CAVAILLON",5.04078,43.8366,0
718,"CHALON-SUR-SAONE",4.85395,46.7808,0
719,"CHALONS-SUR-MARNE",4.36307,48.9567,0
720,"CHAMBERY",5.91778,45.5646,0
721,"CHARLEVILLE",3.66741,48.8137,0
722,"CHARTRES",1.48901,48.4439,0
723,"CHATEAU-GONTIER",-0.7069,47.8268,0
724,"CHATEAUDUN",1.3277,48.0704,0
725,"CHATEAUROUX",1.68678,46.8114,0
726,"CHATELLERAULT",0.548146,46.8165,0
727,"CHAUMONT",5.13926,48.1137,0
728,"CHERBOURG",-1.6253,49.6391,0
729,"CHINON",0.240385,47.1673,0
730,"CHOLET",-0.879787,47.0594,0
731,"CLAMECY",3.51877,47.4596,0
732,"CLERMONT-FERRAND",3.08703,45.7772,0
733,"CLERMONT-L'HERAULT",3.4295,43.6276,0
734,"CLUNY",4.66456,46.429,0
735,"COLMAR",7.35851,48.0794,0
736,"COMINES",3.00623,50.765,0
737,"COMPIEGNE",2.82614,49.4178,0
738,"CONDE-SUR-L'ESCAUT",3.59341,50.4487,0
739,"CONDE-SUR-NOIREAU",-0.552764,48.851,0
740,"CONDOM",0.372492,43.9582,0
741,"CONDRIEU",4.76801,45.4637,0
742,"CORTE",9.14902,42.3094,0
743,"COSNE",2.9275,47.4122,0
744,"COULOMMIERS",3.0835,48.8131,0
745,"COUTANCES",-1.44526,49.0478,0
746,"CUERS",6.0722,43.2379,0
747,"DARNETAL",1.15322,49.4468,0
748,"DAX",-1.05194,43.7086,0
749,"DIE",5.37054,44.751,0
750,"DIEPPE",1.07748,49.923,0
751,"DIGNE",6.23598,44.0922,0
752,"DIJON",5.04148,47.322,0
753,"DINAN",-2.04733,48.4544,0
754,"DOLE",5.49081,47.0953,0
755,"DOUAI",3.0806,50.3679,0
756,"DRAGUIGNAN",6.46499,43.5377,0
757,"DREUX",1.37089,48.7361,0
758,"DUNKERQUE",2.3752,51.0346,0
759,"ELBEUF",1.00691,49.2922,0
760,"EPERNAY",3.95624,49.0434,0
761,"EPINAL",6.4494,48.1724,0
762,"ETAMPES",2.16142,48.4344,0
763,"EU",1.4196,50.0489,0
764,"EVREUX",1.15136,49.027,0
765,"FALAISE",-0.201956,48.8935,0
766,"FECAMP",0.380774,49.7556,0
767,"FIGEAC",2.03287,44.6083,0
768,"FONTAINEBLEAU",2.70162,48.4047,0
769,"FONTENAY-LE-COMTE",-0.8065,46.466,0
770,"FOUGERES",-1.20463,48.3516,0
771,"GAILLAC",1.89651,43.9018,0
772,"GAP",6.07976,44.5596,0
773,"GENTILLY",2.34469,48.8139,0
774,"GIVORS",4.7694,45.5914,0
775,"GRANVILLE",-1.5973,48.8376,0
776,"GRASSE",6.92649,43.6602,0
777,"GRAY",5.59235,47.4458,0
778,"GRENOBLE",5.72452,45.1885,0
779,"GUERANDE",-2.42976,47.328,0
780,"GUINGAMP",-3.14835,48.5614,0
781,"HAGUENAU",7.79125,48.8133,0
782,"HASPARREN",-1.30525,43.384,0
783,"HAZEBROUCK",2.54256,50.7275,0
784,"HERBAULT",1.13962,47.6042,0
785,"HESDIN",2.03668,50.3729,0
786,"HONDSCHOOTE",2.58587,50.9809,0
787,"HONFLEUR",0.233262,49.4188,0
788,"HYERES",6.12864,43.1205,0
789,"ISSOIRE",3.24813,45.5415,0
790,"ISSOUDUN",1.98865,46.9475,0
791,"JOIGNY",3.39896,47.9814,0
792,"LACHARITE-SUR-LOIRE",3.01801,47.1771,0
793,"LACIOTAT",5.60515,43.1737,0
794,"LAFLECHE",-1.00412,45.6013,0
795,"LAROCHELLE",-1.15114,46.1603,0
796,"LASEYNE-SUR-MER",5.87822,43.103,0
797,"LAIGLE",0.628715,48.7647,0
798,"LANGRES",5.3343,47.8668,0
799,"LAON",3.61989,49.5641,0
800,"LAVAL",-0.770138,48.0779,0
801,"LAVAUR",1.8207,43.6992,0
802,"LEBLANC",2.45,48.9333,0
803,"LECATEAU",4.29628,49.4139,0
804,"LECREUSOT",4.4278,46.8054,0
805,"LECROISIC",-2.51191,47.2943,0
806,"LEHAVRE",0.107929,49.4944,0
807,"LEMANS",0.1984,48.0077,0
808,"LEPUY",3.88294,45.0428,0
809,"LECTOURE",0.623621,43.9336,0
810,"LENS",2.83183,50.4289,0
811,"LESSABLES-D'OLONNE",-1.79549,46.493,0
812,"LIBOURNE",-0.243985,44.913,0
813,"LILLE",3.05726,50.6292,0
814,"LIMOGES",1.2611,45.8336,0
815,"LIMOUX",2.21814,43.0533,0
816,"LISIEUX",0.227849,49.1459,0
817,"LOCHES",0.997664,47.1282,0
818,"LODEVE",3.31398,43.7337,0
819,"LONS-LE-SAUNIER",5.5508,46.6714,0
820,"LORIENT",-3.37024,47.7483,0
821,"LOUDUN",0.083183,47.009,0
822,"LOURDES",-0.045726,43.0915,0
823,"LOUVIERS",1.16866,49.2148,0
824,"LUNEL",4.13537,43.6745,0
825,"LUNEVILLE",6.49234,48.5922,0
826,"LUXEUIL",6.38111,47.8168,0
827,"LYON",4.83566,45.764,0
828,"MACON",4.82873,46.3069,0
829,"MAMERS",0.36733,48.3476,0
830,"MANOSQUE",5.79092,43.8357,0
831,"MARMANDE",0.159869,44.5005,0
832,"MARSEILLE",5.36978,43.2965,0
833,"MARTIGUES",5.05373,43.4048,0
834,"MAUBEUGE",3.9674,50.2802,0
835,"MAYENNE",-0.620935,48.3061,0
836,"MEAUX",2.87926,48.9594,0
837,"MELUN",2.6554,48.5421,0
838,"MENDE",3.50187,44.5176,0
839,"METZ",6.1769,49.1197,0
840,"MEUDON",2.23847,48.813,0
841,"MILLAU",3.0778,44.1006,0
842,"MIRECOURT",6.13386,48.3022,0
843,"MOISSAC",1.08468,44.1049,0
844,"MONT-DE-MARSAN",-0.499782,43.8935,0
845,"MONTARGIS",2.73629,47.9973,0
846,"MONTAUBAN",1.35295,44.0161,0
847,"MONTBELIARD",6.79847,47.5104,0
848,"MONTBRISON",4.06334,45.6075,0
849,"MONTCEAU-LES-MINES",4.36298,46.6741,0
850,"MONTELIMAR",4.7495,44.5569,0
851,"MONTLUCON",2.60664,46.34,0
852,"MONTPELLIER",3.87672,43.6108,0
853,"MONTREUIL",2.44845,48.8638,0
854,"MORLAIX",-3.82823,48.5776,0
855,"MOULINS",3.33442,46.5681,0
856,"MULHOUSE",7.33589,47.7508,0
857,"NANCY",6.18442,48.6921,0
858,"NANTES",-1.55362,47.2184,0
859,"NARBONNE",3.00308,43.1843,0
860,"NERAC",0.340128,44.1361,0
861,"NEVERS",3.16284,46.9909,0
862,"NICE",7.26559,43.696,0
863,"NIMES",4.36005,43.8367,0
864,"NIORT",-0.464777,46.3237,0
865,"NOGENT-LE-ROTROU",0.821776,48.3218,0
866,"NOYON",3.00072,49.5802,0
867,"OBERNAI",7.48168,48.4623,0
868,"OLORON-STE-MARIE",-0.605292,43.1944,0
869,"ORANGE",4.80751,44.1381,0
870,"ORLEANS",1.90925,47.903,0
871,"ORTHEZ",-0.773928,43.4876,0
872,"PAMIERS",1.60795,43.1148,0
873,"PARIS",2.35222,48.8566,0
874,"PAU",-0.370797,43.2951,0
875,"PERIGUEUX",0.721115,45.184,0
876,"PERPIGNAN",2.89587,42.6987,0
877,"PEZENAS",3.42319,43.4615,0
878,"PLOERMEL",-2.39685,47.9293,0
879,"POITIERS",0.340375,46.5802,0
880,"POLIGNY",5.7091,46.8364,0
881,"PONT-A-MOUSSON",6.05487,48.9033,0
882,"PONT-AUDEMER",0.514299,49.3549,0
883,"PONTOISE",2.10065,49.051,0
884,"PROVINS",3.2992,48.5601,0
885,"QUIMPER",-4.0979,47.9975,0
886,"QUIMPERLE",-3.54755,47.8726,0
887,"RAMBERVILLERS",6.63538,48.3465,0
888,"REIMS",4.0317,49.2583,0
889,"RENNES",-1.67571,48.1135,0
890,"RETHEL",4.36535,49.5089,0
891,"RIBEAUVILLE",7.31909,48.1947,0
892,"RICHELIEU",0.324016,47.0127,0
893,"RIOM",3.11493,45.894,0
894,"RIVE-DE-GIER",4.61535,45.5277,0
895,"ROANNE",4.0727,46.0344,0
896,"ROCHEFORT",-0.961697,45.9367,0
897,"RODEZ",2.57599,44.3494,0
898,"ROMANS",5.05274,45.0442,0
899,"ROMORANTIN",1.74726,47.3587,0
900,"ROUBAIX",3.17785,50.6927,0
901,"ROUEN",1.09997,49.4432,0
902,"SAINTES",-0.633389,45.7442,0
903,"SALIES-DE-BEARN",-0.924854,43.4706,0
904,"SALINS-LES-BAINS",5.8758,46.9397,0
905,"SALON-DE-PROVENCE",5.09702,43.6402,0
906,"SAUMUR",-0.080893,47.2601,0
907,"SAVERNE",7.36165,48.742,0
908,"SEDAN",4.93863,49.7035,0
909,"SELESTAT",7.45424,48.2594,0
910,"SEMUR-EN-AUXOIS",4.33234,47.4902,0
911,"SENLIS",2.58321,49.2052,0
912,"SENS",3.28268,48.2007,0
913,"SETE",3.69662,43.4021,0
914,"SISTERON",5.94319,44.1947,0
915,"SOISSONS",3.32342,49.3766,0
916,"SOLLIES-PONT",6.04198,43.1912,0
917,"ST-AMAND-LES-EAUX",3.42871,50.449,0
918,"ST-AMAND-MONTROND",2.5056,46.7255,0
919,"ST-BRIEUC",-2.76584,48.5142,0
920,"ST-CHAMOND",4.51271,45.4761,0
921,"ST-DENIS",2.35744,48.9362,0
922,"ST-DIE",6.94777,48.2875,0
923,"ST-DIZIER",4.94742,48.6377,0
924,"ST-ETIENNE",4.38718,45.4397,0
925,"ST-FLOUR",3.09486,45.033,0
926,"ST-GERMAIN",2.09376,48.8989,0
927,"ST-GILLES",4.34022,50.8301,0
928,"ST-HIPPOLYTE",2.96322,42.7802,0
929,"ST-JEAN-D'ANGELY",-0.517763,45.9448,0
930,"ST-JUNIEN",0.901165,45.8872,0
931,"ST-LEONARD",0.62384,46.4075,0
932,"ST-LO",-1.0914,49.116,0
933,"ST-MALO",-2.02567,48.6493,0
934,"ST-MARIE-AUX-MINES",7.38868,48.2806,0
935,"ST-MIHIEL",5.54166,48.8886,0
936,"ST-NAZAIRE",-2.21385,47.2735,0
937,"ST-OMER",2.25221,50.7501,0
938,"ST-POL",-4.3422,48.6747,0
939,"ST-QUENTIN",3.2874,49.8471,0
940,"ST-SEVER",-0.574221,43.7591,0
941,"ST-YRIEIX-LA-PERCHE",1.20366,45.5124,0
942,"STEENVOORDE",2.57522,50.8164,0
943,"STRASBOURG",7.74788,48.5831,1
944,"TARASCON",4.65752,43.806,0
945,"TARBES",0.078082,43.233,0
946,"THIERS",3.54518,45.8579,0
947,"THIONVILLE",6.16843,49.3576,0
948,"TONNEINS",0.308179,44.3912,0
949,"TOUL",5.89016,48.6783,0
950,"TOULON",5.928,43.1242,0
951,"TOULOUSE",1.44421,43.6047,0
952,"TOURCOING",3.16207,50.725,0
953,"TOURNON",4.83214,45.0679,0
954,"TOURNUS",4.91195,46.5618,0
955,"TOURS",0.68484,47.3941,0
956,"TROYES",4.07474,48.2966,0
957,"TULLE",1.7717,45.2657,0
958,"UZES",4.41995,44.0121,0
959,"VALENCE",4.89236,44.9334,0
960,"VALENCIENNES",3.51833,50.3571,0
961,"VALOGNES",-1.46922,49.5096,0
962,"VANNES",-2.76085,47.6582,0
963,"VENDOME",1.06534,47.7926,0
964,"VERDUN",5.38676,49.1589,0
965,"VERDUN-SUR-GARONNE",1.23558,43.8541,0
966,"VERSAILLES",2.13012,48.8014,0
967,"VESOUL",6.15428,47.6198,0
968,"VIENNE",4.87434,45.5256,0
969,"VIERZON",2.06979,47.2214,0
970,"VILLEFRANCHE-DE-ROUERGUE",2.03538,44.3497,0
971,"VILLEFRANCHE-SUR-SAONE",4.71882,45.9915,0
972,"VILLENEUVE",0.707257,44.4082,0
973,"VILLENEUVE-LEZ-AVIGNON",4.84674,43.9499,0
974,"VIRE",-0.888482,48.8378,0
975,"VITRE",-1.21543,48.1247,0
976,"VITRY-LE-FRANCOIS",4.58575,48.7261,0
977,"VOIRON",5.59135,45.3627,0
978,"WISSEMBOURG",7.94454,49.0369,0
979,"YSSINGEAUX",4.12373,45.1427,0
980,"YVETOT",0.755212,49.6178,0
981,"ABERDEEN",-2.09428,57.1497,0
982,"ASHTON-UPON-LYNE",-2.1032,53.4941,0
983,"BARNSLEY",-1.47973,53.5526,0
984,"BATH",-2.3599,51.3758,0
985,"BERWICK",-2.0054,55.7702,0
986,"BEVERLEY",-0.435093,53.842,0
987,"BILSTON",-2.07409,52.5656,0
988,"BIRMINGHAM",-1.8936,52.4831,0
989,"BLACKBURN",-2.48753,53.7486,0
990,"BOLTON",-2.42862,53.5844,0
991,"BOSTON",-0.0214,52.9746,0
992,"BOURNEMOUTH",-1.88077,50.7192,0
993,"BRADFORD",-1.7594,53.796,0
994,"BRIGHTON",-0.137163,50.8225,0
995,"BRISTOL",-2.58791,51.4545,0
996,"BROMSGROVE",-2.06191,52.3356,0
997,"BURNLEY",-2.2405,53.7893,0
998,"BURSLEM",-2.19673,53.0457,0
999,"BURY",-2.29715,53.595,0
1000,"BURY-ST-EDMUNDS",0.716356,52.2444,0
1001,"CAMBRIDGE",0.119,52.205,0
1002,"CANTERBURY",1.07891,51.2802,0
1003,"CARDIFF",-3.17909,51.4816,0
1004,"CARLISLE",-2.93293,54.8925,0
1005,"CHATHAM",0.52213,51.381,0
1006,"CHELTENHAM",-2.07336,51.9027,0
1007,"CHESTER",-2.89308,53.1934,0
1008,"CHESTERFIELD",-1.42163,53.235,0
1009,"CHICHESTER",-0.774936,50.8376,0
1010,"COLCHESTER",0.891874,51.8959,0
1011,"CONGLETON",-2.21892,53.1629,0
1012,"COVENTRY",-1.51969,52.4068,0
1013,"CROYDON",-0.098234,51.3762,0
1014,"DARLINGTON",-1.55946,54.5236,0
1015,"DEAL",1.40166,51.2225,0
1016,"DEPTFORD",-0.0264139,51.4816,0
1017,"DERBY",-1.47462,52.9225,0
1018,"DONCASTER",-1.12846,53.5228,0
1019,"DOVER",1.3134,51.1279,0
1020,"DUDLEY",-2.08111,52.5123,0
1021,"DUNDEE",-2.97072,56.462,0
1022,"DURHAM",-1.5733,54.7761,0
1023,"EDINBURGH",-3.18827,55.9533,0
1024,"ELLESMERE",-2.90034,52.9067,0
1025,"ELMBRIDGE",-2.14742,52.3076,0
1026,"ELY",0.262363,52.3995,0
1027,"EXETER",-3.5339,50.7184,0
1028,"FROME",-2.3201,51.2308,0
1029,"GATESHEAD",-1.60341,54.9527,0
1030,"GILLINGHAM",0.551438,51.3863,0
1031,"GLASGOW",-4.25181,55.8642,0
1032,"GLOUCESTER",-2.23816,51.8642,0
1033,"GOSPORT",-1.11755,50.795,0
1034,"GRAVESEND",0.370759,51.4419,0
1035,"GREAT-YARMOUTH",1.72805,52.5982,0
1036,"GREENOCK",-4.77198,55.9565,0
1037,"GREENWICH",-0.0076589,51.4826,0
1038,"GRIMSBY",-0.080784,53.5675,0
1039,"GUILDFORD",-0.570409,51.2362,0
1040,"HALIFAX",-1.85754,53.727,0
1041,"HALTON",-2.71369,53.349,0
1042,"HAMILTON",-4.05368,55.7776,0
1043,"HARTLEPOOL",-1.21293,54.6917,0
1044,"HASLINGDEN",-2.32199,53.7018,0
1045,"HEREFORD",-2.71597,52.0564,0
1046,"HUDDERSFIELD",-1.78503,53.6458,0
1047,"HULL",-0.336741,53.7457,0
1048,"ILKESTON",-1.30698,52.9701,0
1049,"INVERNESS",-4.22472,57.4778,0
1050,"IPSWICH",1.14822,52.0567,0
1051,"KENDAL",-2.74629,54.328,0
1052,"KIDDERMINSTER",-2.24968,52.3886,0
1053,"KING'SLYNN",0.400174,52.7565,0
1054,"KIRKCALDY",-3.15814,56.1168,0
1055,"LANCASTER",-2.80074,54.0466,0
1056,"LEEDS",-1.54857,53.8013,0
1057,"LEEK",-2.02339,53.1092,0
1058,"LEICESTER",-1.13976,52.6369,0
1059,"LICHFIELD",-1.83167,52.6816,0
1060,"LINCOLN",-0.540579,53.2307,0
1061,"LIVERPOOL",-2.99157,53.4084,0
1062,"LONDON",-0.125487,51.5085,0
1063,"LOUGHBOROUGH",-1.20617,52.7721,0
1064,"LUTON",-0.420026,51.8787,0
1065,"MACCLESFIELD",-2.11929,53.2587,0
1066,"MAIDSTONE",0.522699,51.2704,0
1067,"MANCHESTER",-2.24849,53.4793,0
1068,"MANSFIELD",-1.19867,53.1472,0
1069,"MARGATE",1.38683,51.3896,0
1070,"MERTHYR-TYDFIL",-3.38165,51.7487,0
1071,"NANTWICH",-2.5241,53.0672,0
1072,"NEWARK",-0.81,53.0765,0
1073,"NEWBURY",-1.32311,51.4014,0
1074,"NEWCASTLE-UNDER-LYME",-2.2273,53.0132,0
1075,"NEWCASTLE-UPON-TYNE",-1.61778,54.9783,0
1076,"NEWPORT",-2.99766,51.5842,0
1077,"NORTH-SHIELDS",-1.44914,55.0108,0
1078,"NORTHAMPTON",-0.902656,52.2405,0
1079,"NORWICH",1.29736,52.6309,0
1080,"NOTTINGHAM",-1.15811,52.9548,0
1081,"NUNEATON",-1.46538,52.5205,0
1082,"OGWR",-3.60893,51.4794,0
1083,"OLDHAM",-2.11873,53.5445,0
1084,"OXFORD",-1.25773,51.752,0
1085,"PAISLEY",-4.44011,55.8473,0
1086,"PERTH",-3.43084,56.395,0
1087,"PETERBOROUGH",-0.24053,52.5695,0
1088,"PLYMOUTH",-4.14266,50.3755,0
1089,"POOLE",-1.98725,50.715,0
1090,"PORTSMOUTH",-1.08333,50.8167,0
1091,"PRESTON",-2.70309,53.7632,0
1092,"READING",-0.97813,51.4543,0
1093,"RENFREW",-4.39154,55.8753,0
1094,"ROCHDALE",-2.16181,53.6141,0
1095,"ROCHESTER",-0.4982,51.3883,0
1096,"ROTHERHAM",-1.3635,53.4326,0
1097,"ROWLEYREGIS",-2.04609,52.4887,0
1098,"RUGBY",-1.26503,52.3709,0
1099,"SALFORD",-2.2983,53.4885,0
1100,"SALISBURY",-1.79447,51.0688,0
1101,"SANDWICH",1.33743,51.274,0
1102,"SCARBOROUGH",-0.399752,54.2831,0
1103,"SEDGLEY",-2.12315,52.5436,0
1104,"SEFTON",-2.97036,53.5034,0
1105,"SHEFFIELD",-1.47009,53.3811,0
1106,"SHEPTON-MALLET",-2.54789,51.1909,0
1107,"SHREWSBURY",-2.75533,52.7073,0
1108,"SOUTH-RIBBLE",-2.66816,53.7231,0
1109,"SOUTH-SHIELDS",-1.42741,54.9994,0
1110,"SOUTHAMPTON",-1.40435,50.9097,0
1111,"ST-ALBANS",-0.339436,51.7527,0
1112,"ST-ANDREWS",-2.7965,56.3393,0
1113,"ST-HELENS",-2.7371,53.4563,0
1114,"ST-PETERPORT",-2.53687,49.4554,0
1115,"STAFFORD",-2.12066,52.8067,0
1116,"STOCKPORT",-2.15884,53.4068,0
1117,"STOCKTON-ON-TEES",-1.32898,54.5705,0
1118,"STOKE-ON-TRENT",-2.1794,53.0027,0
1119,"STROUD",-2.21776,51.7457,0
1120,"SUNDERLAND",-1.3838,54.9069,0
1121,"SWANSEA",-3.94365,51.6214,0
1122,"TAMESIDE",-1.19064,54.4741,0
1123,"TAUNTON",-3.10685,51.0153,0
1124,"THETFORD",0.751657,52.4129,0
1125,"TIVERTON",-3.49121,50.902,0
1126,"TUNBRIDGE-WELLS",0.263695,51.1324,0
1127,"TYNEMOUTH",-1.42558,55.0176,0
1128,"WAKEFIELD",-1.50592,53.6833,0
1129,"WALSALL",-1.98292,52.5862,0
1130,"WARMINSTER",-2.18108,51.2046,0
1131,"WARRINGTON",-2.59695,53.39,0
1132,"WARWICK",-1.58493,52.2823,0
1133,"WELLINGTON",-2.5157,52.7001,0
1134,"WEST-BROMWICH",-1.99516,52.5177,0
1135,"WEST-HAM",0.0054588,51.5285,0
1136,"WHITBY",-0.613347,54.4863,0
1137,"WHITEHAVEN",-3.58923,54.5497,0
1138,"WIGAN",-2.63747,53.5454,0
1139,"WINCHESTER",-1.31014,51.0598,0
1140,"WINDSOR-AND-MAIDENHEAD",-0.732175,51.4917,0
1141,"WOLVERHAMPTON",-2.12882,52.587,0
1142,"WOOLWICH",0.0676032,51.4895,0
1143,"WORCESTER",-2.2208,52.1925,0
1144,"WORKINGTON",-3.54275,54.6436,0
1145,"YORK",-1.0873,53.96,0
1217,"ARMAGH",-6.65161,54.3488,0
1218,"BELFAST",-5.93012,54.5973,0
1219,"CARLOW",-6.85037,52.719,0
1220,"CARRICKFERGUS",-5.80818,54.7137,0
1221,"CASTLEBAR",-9.28793,53.855,0
1222,"CLONMELL",-7.7116,52.3539,0
1223,"CORK",-8.48632,51.8969,0
1224,"DOWNPATRICK",-5.71573,54.3288,0
1225,"DROGHEDA",-6.3561,53.7179,0
1226,"DUBLIN",-6.26031,53.3498,0
1227,"DUNDALK",-6.40596,53.9979,0
1228,"GALWAY",-9.05667,53.2706,0
1229,"KILKENNY",-7.24479,52.6541,0
1230,"KILMALLOCK",-8.57539,52.3998,0
1231,"LIMERICK",-8.6305,52.668,0
1232,"LONDONDERRY",-7.30857,54.9966,0
1233,"NEW-ROSS",-6.94719,52.3962,0
1234,"NEWRY",-6.33393,54.1801,0
1235,"SLIGO",-8.47609,54.2766,0
1236,"TRALEE",-9.69993,52.2713,0
1237,"WATERFORD",-7.12721,52.2523,0
1238,"WEXFORD",-6.46334,52.3369,0
1239,"ACERRA",14.3714,40.9441,0
1240,"ACIREALE",15.1667,37.6078,0
1241,"ACQUAVIVA",11.8635,43.1142,0
1242,"ACQUITERME",8.46703,44.6764,0
1243,"ADERNO",14.8326,37.6628,0
1244,"AFRAGOLA",14.3093,40.923,0
1245,"AGNONE",14.3739,41.8087,0
1246,"AGRIGENTO",13.5765,37.3111,0
1247,"AIDONE",14.4455,37.4159,0
1248,"ALASSIO",8.18117,44.0143,0
1249,"ALATRI",13.3412,41.7253,0
1250,"ALBA",8.03569,44.7009,0
1251,"ALCAMO",12.9686,37.9784,0
1252,"ALESSANDRIA",8.61168,44.9073,0
1253,"ALGHERO",8.31929,40.558,0
1254,"ALTAMURA",16.5528,40.8254,0
1255,"AMALFI",14.6027,40.634,0
1256,"ANAGNI",13.1514,41.7453,0
1257,"ANCONA",13.5189,43.6158,0
1258,"ANDRIA",16.2966,41.2273,0
1259,"ANGRI",14.5712,40.7381,0
1260,"AOSTA",7.31308,45.735,0
1261,"AQUILA",13.6363,42.1256,0
1262,"ARAGONA",13.6189,37.4074,0
1263,"AREZZO",11.8823,43.467,0
1264,"ARIANOIRPINO",15.0923,41.1549,0
1265,"ARPINO",13.6126,41.6451,0
1266,"ASARO",13.7332,37.4056,0
1267,"ASCOLIPICENO",13.5749,42.8536,0
1268,"ASCOLISATRIANO",15.5627,41.2033,0
1269,"ASIAGO",11.5096,45.8759,0
1270,"ASSISI",12.6196,43.0707,0
1271,"ASTI",8.20643,44.9008,0
1272,"ATESSA",14.4511,42.0714,0
1273,"ATRI",13.9758,42.5806,0
1274,"AUGUSTA",15.2167,37.25,0
1275,"AVELLINO",14.7903,40.9144,0
1276,"AVERSA",14.2077,40.9732,0
1277,"AVIGLIANO",15.7146,40.7299,0
1278,"AVOLA",15.1349,36.9095,0
1279,"BAGNARACALABRA",15.8034,38.2838,0
1280,"BARI",16.8719,41.1171,0
1281,"BARLETTA",16.2838,41.3197,0
1282,"BARRAFRANCA",14.2009,37.3754,0
1283,"BASSANO",12.3112,42.466,0
1284,"BELLA",15.5378,40.759,0
1285,"BELLUNO",12.2167,46.1425,0
1286,"BELPASSO",14.9768,37.5898,0
1287,"BENEVENTO",14.7826,41.1298,0
1288,"BERGAMO",9.67727,45.6983,0
1289,"BIANCAVILLA",14.8706,37.6412,0
1290,"BIELLA",8.05834,45.5629,0
1291,"BISACQUINO",13.2591,37.7056,0
1292,"BISCEGLIE",16.5021,41.2427,0
1293,"BITONTO",16.6911,41.1078,0
1294,"BIVONA",13.4405,37.6184,0
1295,"BOLOGNA",11.3426,44.4949,0
1296,"BOLZANO",11.3548,46.4983,0
1297,"BOSA",8.50367,40.2952,0
1298,"BOVES",7.55157,44.328,0
1299,"BRA",7.85512,44.6923,0
1300,"BRESCIA",10.2194,45.5412,0
1301,"BRINDISI",17.9418,40.6327,0
1302,"BRONTE",14.8307,37.7884,0
1303,"BURGIO",13.2908,37.5986,0
1304,"BUSCA",7.47797,44.5169,0
1305,"CACCAMO",13.6652,37.9314,0
1306,"CAGLIARI",9.12166,39.2238,0
1307,"CAIVANO",14.3046,40.9568,0
1308,"CALASCIBETTA",14.2705,37.5895,0
1309,"CALATAFIMI",12.8636,37.9141,0
1310,"CALTABELLOTTA",13.2186,37.5757,0
1311,"CALTAGIRONE",14.5126,37.2381,0
1312,"CALTANISSETA",14.0629,37.4901,0
1313,"CALTAVUTURO",13.891,37.8197,0
1314,"CALVELLO",15.8505,40.475,0
1315,"CAMERINO",13.0683,43.1357,0
1316,"CAMMARATA",13.6387,37.6328,0
1317,"CAMPAGNA",15.1068,40.6671,0
1318,"CAMPLI",13.6878,42.7274,0
1319,"CAMPOBASSO",14.6627,41.5603,0
1320,"CANICATTI",13.8477,37.3586,0
1321,"CAPRI",14.2222,40.5532,0
1322,"CAPUA",14.213,41.1061,0
1323,"CARAGLIO",7.43267,44.4192,0
1324,"CARIGNANO",7.67745,44.9059,0
1325,"CARINI",13.1813,38.1312,0
1326,"CARMAGNOLE",7.71744,44.8459,0
1327,"CARRARA",10.0977,44.0793,0
1328,"CASALE",7.87786,45.1161,0
1329,"CASALMAGGIORE",10.4196,44.9883,0
1330,"CASERTA",14.3311,41.0723,0
1331,"CASSANOALL'IONIO",16.3699,39.7686,0
1332,"CASTELBUONO",14.0888,37.933,0
1333,"CASTELLAMAREDELGOLFO",12.8809,38.0265,0
1334,"CASTELLAMMARE",14.4828,40.6958,0
1335,"CASTELTERMINI",13.6432,37.541,0
1336,"CASTELVETRANO",12.7915,37.6779,0
1337,"CASTIGLIONEDELLESTIVIERE",10.483,45.3874,0
1338,"CASTRONUOVODISICILIA",13.6039,37.6801,0
1339,"CASTROREALE",15.2126,38.1006,0
1340,"CATANIA",15.0829,37.508,0
1341,"CATANZARO",16.5877,38.9098,0
1342,"CATTOLICAERACLEA",13.3938,37.4408,0
1343,"CAVADETIRRENI",14.7107,40.696,0
1344,"CAVOUR",7.37358,44.7867,0
1345,"CEFALU",14.0174,38.0332,0
1346,"CERRETOSANNITA",14.5606,41.2848,0
1347,"CERVINARA",14.6121,41.0214,0
1348,"CESENA",12.2464,44.1396,0
1349,"CETRARO",15.9409,39.5165,0
1350,"CHERASCO",7.85819,44.6472,0
1351,"CHIARAMONTEGULFI",14.7032,37.0311,0
1352,"CHIAVARI",9.31998,44.3168,0
1353,"CHIERI",7.82756,45.0089,0
1354,"CHIETI",14.1636,42.3479,0
1355,"CHIOGGIA",12.279,45.2199,0
1356,"CHIUSASCLAFANI",13.2716,37.6784,0
1357,"CHIVASSO",7.88895,45.19,0
1358,"CIMINNA",13.5602,37.8964,0
1359,"CINISI",13.1088,38.1551,0
1360,"CITTADICASTELLO",12.2389,43.4621,0
1361,"CIVITAVECCHIA",11.7957,42.0925,0
1362,"COMISO",14.6037,36.9474,0
1363,"COMO",9.08518,45.8081,0
1364,"CONEGLIANO",12.3006,45.8892,0
1365,"CONVERSANO",17.1171,40.9674,0
1366,"CORATO",16.4132,41.1535,0
1367,"CORLEONE",13.2988,37.8138,0
1368,"CORTONA",11.9851,43.2751,0
1369,"COSENZA",16.2537,39.2983,0
1370,"CREMA",9.68248,45.3643,0
1371,"CREMONA",10.0227,45.1332,0
1372,"CUNEO",7.54267,44.3845,0
1373,"DRONERO",7.36567,44.4658,0
1374,"EBOLI",15.0564,40.6179,0
1375,"ENNA",14.2751,37.5656,0
1376,"ESTE",11.6604,45.2255,0
1377,"FAENZA",11.8774,44.2899,0
1378,"FANO",13.0194,43.8398,0
1379,"FASANO",17.3609,40.8367,0
1380,"FAVARA",13.6623,37.316,0
1381,"FERENTINO",13.2577,41.6957,0
1382,"FERRARA",11.6198,44.8381,0
1383,"FIRENZE",11.248,43.771,0
1384,"FOGGIA",15.5446,41.4622,0
1385,"FOLIGNO",12.7015,42.9509,0
1386,"FONDI",13.4266,41.3591,0
1387,"FORLI",12.0407,44.2227,0
1388,"FOSSANO",7.72179,44.5525,0
1389,"FOSSOMBRONE",12.8033,43.6887,0
1390,"FRANCAVILLA",16.2027,40.0801,0
1391,"FROSINONE",13.3426,41.6396,0
1392,"GAETA",13.5714,41.2107,0
1393,"GALLIPOLI",17.9926,40.0559,0
1394,"GANGI",14.2059,37.7967,0
1395,"GELA",14.2404,37.0742,0
1396,"GENOVA",8.94626,44.4056,0
1397,"GIAVENO",7.35259,45.042,0
1398,"GIBELLINA",12.9793,37.7948,0
1399,"GIOIADELCOLLE",16.9222,40.7991,0
1400,"GIOVINAZZO",16.6736,41.1867,0
1401,"GIULIANOINCAMPANIA",15.4951,40.0635,0
1402,"GORIZIA",13.6202,45.9402,0
1403,"GRAGNANO",14.5194,40.6859,0
1404,"GRAMMICHELE",14.6364,37.2148,0
1405,"GRAVINA",16.4185,40.8171,0
1406,"GUBBIO",12.5738,43.3505,0
1407,"IESI",13.2464,43.5271,0
1408,"IGLESIAS",8.53662,39.3106,0
1409,"IMOLA",11.7124,44.36,0
1410,"ISERNIA",14.2332,41.596,0
1411,"ITRI",13.5322,41.2904,0
1412,"IVREA",7.88006,45.4673,0
1413,"LASPEZIA",9.82408,44.1025,0
1414,"LANCIANO",14.389,42.2266,0
1415,"LAURENZANA",15.9699,40.4595,0
1416,"LAURIA",15.8387,40.0512,0
1417,"LECCE",18.175,40.3515,0
1418,"LENTINI",14.9961,37.2838,0
1419,"LEONESSA",12.9624,42.5661,0
1420,"LEONFORTE",14.3916,37.6392,0
1421,"LERCARA",13.6015,37.725,0
1422,"LICATA",13.9373,37.1017,0
1423,"LICODIAEUBEA",14.7002,37.1551,0
1424,"LIVORNO",10.3106,43.5485,0
1425,"LODI",9.50183,45.3138,0
1426,"LUCCA",10.4951,43.8376,0
1427,"LUCERA",15.3385,41.5055,0
1428,"MACERATA",13.4535,43.2984,0
1429,"MADDALONI",14.3812,41.0367,0
1430,"MAMMOLA",16.2386,38.3623,0
1431,"MANDURIA",17.6377,40.398,0
1432,"MANFREDONIA",15.9165,41.6307,0
1433,"MANTUA",10.7914,45.1564,0
1434,"MARIGLIANO",14.4562,40.9249,0
1435,"MARINEO",13.419,37.9539,0
1436,"MARSALA",12.437,37.798,0
1437,"MARSICONUOVO",15.7335,40.4222,0
1438,"MARTINAFRANCA",17.3393,40.7029,0
1439,"MASCALI",15.1935,37.7517,0
1440,"MASSA",10.1393,44.0354,0
1441,"MASSAFRA",17.1184,40.5911,0
1442,"MATELICA",13.0092,43.2512,0
1443,"MATERA",16.6043,40.6664,0
1444,"MAZZARA",13.1808,37.9697,0
1445,"MAZZARINO",14.2118,37.3039,0
1446,"MELFI",15.6531,40.9933,0
1447,"MELILLI",15.1254,37.181,0
1448,"MENFI",12.9682,37.5992,0
1449,"MESSINA",15.554,38.1938,0
1450,"MILANO",9.18652,45.4655,0
1451,"MILAZZO",15.2419,38.2207,0
1452,"MILITELLOINVALDICATANIA",14.7937,37.2735,0
1453,"MINEO",14.6907,37.2659,0
1454,"MIRABELLAECLANO",14.9967,41.0432,0
1455,"MIRANDOLA",11.0633,44.8864,0
1456,"MISILMERI",13.4482,38.0299,0
1457,"MISTRETTA",14.3626,37.9278,0
1458,"MODENA",10.9201,44.6488,0
1459,"MODICA",14.7679,36.8396,0
1460,"MOLA",17.0903,41.063,0
1461,"MOLFETTA",16.5987,41.2028,0
1462,"MONDOVI",7.81967,44.3953,0
1463,"MONOPOLI",17.2994,40.9527,0
1464,"MONREALE",13.289,38.0815,0
1465,"MONSELICE",11.7497,45.2391,0
1466,"MONTAGNANA",11.4624,45.2308,0
1467,"MONTALBANODIELICONA",15.0164,38.0229,0
1468,"MONTEDISAN-GIULIANO",12.545,38.0194,0
1469,"MONTESANT'ANGELO",15.9677,41.7046,0
1470,"MONTEFIASCONE",12.0338,42.5402,0
1471,"MONTEMAGGIORE",12.6744,42.1474,0
1472,"MONTEPULCIANO",11.7872,43.0987,0
1473,"MONTESARCHIO",14.638,41.0632,0
1474,"MONTESCAGLIOSO",16.6643,40.5573,0
1475,"MONZA",9.27445,45.5845,0
1476,"MORANOCALABRO",16.138,39.843,0
1477,"MORCONE",14.6655,41.3398,0
1478,"MORMANNO",15.9864,39.8896,0
1479,"MUSSOMELI",13.753,37.5757,0
1480,"NAPOLI",14.2681,40.8518,0
1481,"NARDO",18.0281,40.1762,0
1482,"NARO",13.8,37.3,0
1483,"NICASTRO",16.3128,38.9712,0
1484,"NICOSIA",14.3953,37.7469,0
1485,"NISCEMI",14.3878,37.1486,0
1486,"NOCERA",14.6389,40.7473,0
1487,"NOLA",14.5289,40.9271,0
1488,"NORCIA",13.0947,42.7917,0
1489,"NOTO",15.0652,36.8924,0
1490,"NOVARA",8.62216,45.4469,0
1491,"NOVI",8.7906,44.7617,0
1492,"ORIA",17.6389,40.4993,0
1493,"ORISTANO",8.58839,39.9062,0
1494,"ORMEA",7.91049,44.1483,0
1495,"ORTONA-A-MARE",12.206,41.8613,0
1496,"ORVIETO",12.1107,42.7185,0
1497,"OSIMO",13.4785,43.4884,0
1498,"OSTUNI",17.578,40.7295,0
1499,"OTRANTO",18.4912,40.1439,0
1500,"PADOVA",11.8768,45.4064,0
1501,"PALAMADIMONTECHIARO",13.7619,37.1929,0
1502,"PALAZZOADRIANO",13.3791,37.6815,0
1503,"PALAZZOLOACREIDE",14.9041,37.0619,0
1504,"PALERMO",13.3613,38.1157,0
1505,"PALMACAMPANIA",14.5578,40.8707,0
1506,"PALMANOVA",13.3057,45.9094,0
1507,"PALMI",15.8465,38.3576,0
1508,"PARMA",10.3279,44.8015,0
1509,"PARTANNA",12.8872,37.7248,0
1510,"PARTINICO",13.1184,38.0467,0
1511,"PATERNO",14.9018,37.5672,0
1512,"PATTI",14.9666,38.1386,0
1513,"PAVIA",9.15821,45.1847,0
1514,"PENNE",13.9281,42.4569,0
1515,"PERUGIA",12.3908,43.1107,0
1516,"PESARO",12.9155,43.9125,0
1517,"PESCARA",14.2161,42.4618,0
1518,"PETRALIASOPRANA",14.1079,37.7964,0
1519,"PETRALIASOTTANA",14.09,37.8086,0
1520,"PEVERAGNO",7.61735,44.3289,0
1521,"PIACENZA",9.68658,45.0474,0
1522,"PIANA",13.2836,37.99,0
1523,"PIAZZAARMERINA",14.3707,37.3858,0
1524,"PIETRAPERZIA",14.1395,37.421,0
1525,"PISA",10.4017,43.7228,0
1526,"PISTICCI",16.5529,40.3901,0
1527,"PISTOIA",10.9079,43.9303,0
1528,"PITIGLIANO",11.67,42.6353,0
1529,"PIZZO",16.1629,38.7338,0
1530,"POGGIBONSI",11.1468,43.4726,0
1531,"POLIZZIGENEROSA",13.9956,37.8033,0
1532,"POMIGLIANOD'ARCO",14.391,40.9121,0
1533,"PONTECORVO",13.6638,41.4546,0
1534,"PORTICI",14.3391,40.8141,0
1535,"POTENZA",15.8056,40.6404,0
1536,"POZZUOLI",14.0933,40.8459,0
1537,"PRATO",11.1022,43.8777,0
1538,"PRIZZI",13.4283,37.7221,0
1539,"PROCIDA",14.031,40.7623,0
1540,"PUTIGNANO",17.1204,40.8544,0
1541,"RACALMUTO",13.7326,37.4088,0
1542,"RACCONIGI",7.67591,44.7683,0
1543,"RAFFADALI",13.5312,37.4049,0
1544,"RAGUSA",14.7255,36.9269,0
1545,"RANDAZZO",14.9507,37.8779,0
1546,"RAVANUSA",13.9733,37.2679,0
1547,"RAVENNA",12.2035,44.4184,0
1548,"REGALBUTO",14.6403,37.65,0
1549,"REGGIODICALABRIA",15.6473,38.1113,0
1550,"REGGIONELL'EMILIA",10.6297,44.699,0
1551,"RESINA",14.385,40.821,0
1552,"RIETI",12.8567,42.4045,0
1553,"RIMINI",12.5646,44.0571,0
1554,"RIONEROINVULTURE",15.6697,40.9264,0
1555,"ROMA",12.4825,41.8929,0
1556,"ROSSANO",16.6343,39.5763,0
1557,"ROVERETO",11.0401,45.891,0
1558,"ROVIGO",11.7902,45.0698,0
1559,"RUVO",16.4837,41.1173,0
1560,"S.-CATERINA",14.3589,37.9257,0
1561,"S.-MARGHERITA",13.0784,37.5084,0
1562,"S.-MARIACAPUAVETERE",14.2454,41.0663,0
1563,"SALEMI",12.7989,37.819,0
1564,"SALERNO",14.7681,40.6824,0
1565,"SALUZZO",7.49274,44.6445,0
1566,"SAMBUCADISICILIA",13.1111,37.6477,0
1567,"SAN-BARTOLOMEO",15.0143,41.4116,0
1568,"SAN-CATALDO",13.9881,37.4832,0
1569,"SAN-FELE",15.5402,40.8193,0
1570,"SAN-FILIPPODIMELA",15.2743,38.1692,0
1571,"SAN-GIMIGNANO",11.0435,43.4676,0
1572,"SAN-MARCOINLAMIS",15.6381,41.7124,0
1573,"SAN-REMO",7.77606,43.816,0
1574,"SAN-SEVERO",15.3795,41.6854,0
1575,"SAN-STEFANODIBRIGA",15.4667,38.1,0
1576,"SANT'ANGELODIBROLO",14.8827,38.1141,0
1577,"SARNO",14.6216,40.8101,0
1578,"SASSARI",8.55568,40.7259,0
1579,"SAVIGLIANO",7.66246,44.647,0
1580,"SAVONA",8.4645,44.2976,0
1581,"SCIACCA",13.0816,37.5085,0
1582,"SCICLI",14.707,36.7932,0
1583,"SCIGLIANO",16.307,39.1287,0
1584,"SERINO",14.8624,40.8587,0
1585,"SERRADIFALCO",13.8826,37.4565,0
1586,"SEZZE",13.0618,41.4994,0
1587,"SICULIANA",13.4217,37.3354,0
1588,"SIENA",11.3308,43.3188,0
1589,"SINIGAGLIA",13.1971,43.6896,0
1590,"SIRACUSA",15.2866,37.0755,0
1591,"SOLOFRA",14.8456,40.8325,0
1592,"SOMMA",14.4384,40.8741,0
1593,"SORA",13.613,41.7189,0
1594,"SORRENTO",14.3758,40.6263,0
1595,"SORTINO",15.0277,37.158,0
1596,"SPACCAFURNO",14.9272,36.7656,0
1597,"SPOLETO",12.7345,42.7305,0
1598,"SULMONA",13.9289,42.0482,0
1599,"TAORMINA",15.2853,37.8516,0
1600,"TARANTO",17.2478,40.4658,0
1601,"TERAMO",13.6987,42.6611,0
1602,"TERLIZZI",16.5427,41.1301,0
1603,"TERMINIIMERESE",13.6962,37.984,0
1604,"TERNI",12.6427,42.5636,0
1605,"TERRACINA",13.2333,41.2964,0
1606,"TIVOLI",12.8022,41.9598,0
1607,"TORINO",7.68568,45.071,0
1608,"TORREANNUNZIATA",14.4509,40.7541,0
1609,"TORREDELGRECO",14.3675,40.7894,0
1610,"TORTONA",8.86333,44.8952,0
1611,"TORTORICI",14.8246,38.0305,0
1612,"TRANI",16.4178,41.2775,0
1613,"TRAPANI",12.5372,38.0176,0
1614,"TRENTO",11.1211,46.0697,0
1615,"TREVIGLIO",9.59512,45.5212,0
1616,"TREVISO",12.243,45.6669,0
1617,"TRIESTE",13.778,45.6495,0
1618,"TRINO",8.29661,45.1943,0
1619,"TROINA",14.6001,37.7848,0
1620,"UDINE",13.2346,46.0711,0
1621,"URBINO",12.6366,43.7263,0
1622,"VALENZA",8.64411,45.0123,0
1623,"VARALLO",8.26166,45.8126,0
1624,"VASTO",14.7059,42.1046,0
1625,"VELLETRI",12.7785,41.6868,0
1626,"VENEZIA",12.3155,45.4408,0
1627,"VENTIMIGLIA",7.60759,43.7912,0
1628,"VERBANIA",8.55547,45.9282,0
1629,"VERCELLI",8.41857,45.3202,0
1630,"VEROLI",13.4129,41.696,0
1631,"VERONA",10.9917,45.4384,0
1632,"VIBOVALENTIA",16.0983,38.6758,0
1633,"VICARI",13.5706,37.8262,0
1634,"VICENZA",11.5354,45.5455,0
1635,"VICODELGARGANO",15.9596,41.896,0
1636,"VIESTI",16.1667,41.8833,0
1637,"VIGEVANO",8.84667,45.3219,0
1638,"VIGON",7.5,44.85,0
1639,"VILLAFRANCADIPIEMONTE",7.5067,44.7821,0
1640,"VITERBO",12.1077,42.4207,0
1641,"VITTORIA",14.5373,36.9521,0
1642,"VIZZINI",14.7489,37.1613,0
1643,"VOGHERA",9.01204,44.9917,0
1644,"VOLTERRA",10.866,43.3994,0
1645,"LUXEMBURG",6.12958,49.8153,0
1647,"ARENDAL",8.77245,58.4618,0
1649,"DRAMMEN",10.2045,59.7441,0
1650,"HALDEN",11.3875,59.133,0
1651,"KONGSBERG",9.65019,59.6689,0
1652,"KRISTIANSAND",8.0061,58.17,0
1653,"LARVICK",10.0164,59.0811,0
1654,"OSLO",10.7522,59.9139,0
1655,"STAVANGER",5.73311,58.97,0
1657,"ALKMAAR",4.75338,52.6324,0
1658,"AMERSFOORT",5.38783,52.1561,0
1659,"AMSTERDAM",4.89517,52.3702,0
1660,"APELDOORN",5.96992,52.2112,0
1661,"ARNHEM",5.89873,51.9851,1
1662,"BERGEN-OP-ZOOM",4.28716,51.4946,0
1663,"BREDA",4.77695,51.5831,0
1664,"DELFT",4.35707,52.0116,0
1665,"DEVENTER",6.15522,52.2661,1
1666,"DORDRECHT",4.69009,51.8133,1
1667,"EDAM",5.04918,52.5126,0
1668,"ENKHUIZEN",5.28468,52.7154,0
1669,"FRANEKER",5.55649,53.1888,0
1670,"GOES",3.89113,51.5046,0
1671,"GORINCHEM",4.97583,51.8372,1
1672,"GOUDA",4.71046,52.0115,0
1673,"GRONINGEN",6.5665,53.2194,0
1674,"HAARLEM",4.63596,52.3836,0
1675,"HARDERWIJK",5.63674,52.3422,0
1676,"HARLINGEN",5.42515,53.1746,0
1677,"HEERLEN",5.9795,50.8882,0
1678,"HELMOND",5.65701,51.4793,0
1679,"HENGELO",6.79277,52.2574,0
1680,"HILVERSUM",5.1669,52.2292,0
1681,"HOOGEVEEN",6.4901,52.7286,0
1682,"HOORN",5.06021,52.6424,0
1683,"KAMPEN",5.91446,52.558,1
1684,"LEEUWARDEN",5.79991,53.2012,0
1685,"LEIDEN",4.4962,52.1585,0
1686,"MAASLUIS",4.25457,51.9226,1
1687,"MAASTRICHT",5.69097,50.8514,0
1688,"MEDEMBLIK",5.10692,52.7674,0
1689,"MEPPEL",6.19372,52.6921,0
1690,"MIDDELBURG",3.611,51.4988,0
1691,"MONNIKENDAM",5.0333,52.4667,0
1692,"NAARDEN",5.16042,52.2953,0
1693,"NIJKERK",5.48356,52.2225,0
1694,"NIJMEGEN",5.83723,51.8126,1
1695,"ROERMOND",5.98777,51.1913,0
1696,"ROOSENDAAL",4.46532,51.5358,0
1697,"ROTTERDAM",4.48178,51.9242,1
1698,"SGRAVENHAGUE",4.30793,52.0808,0
1699,"SHERTOGENBOSCH",5.30367,51.6978,0
1700,"SCHIEDAM",4.39882,51.917,1
1701,"SCHOONHOVEN",4.84322,51.9525,1
1702,"SNEEK",5.65565,53.0337,0
1703,"TIEL",5.42788,51.8876,1
1704,"TILBURG",5.09191,51.5606,0
1705,"UTRECHT",5.11457,52.0918,1
1706,"VEENDAM",6.8751,53.1063,0
1707,"VENLO",6.17239,51.3705,0
1708,"VLAARDINGEN",4.34944,51.9121,1
1709,"VLISSINGEN",3.57091,51.4537,0
1710,"WEERT",5.71422,51.2439,0
1711,"WINTERSWIJK",6.72051,51.9713,0
1712,"WORKUM",5.44959,52.9803,0
1713,"ZAANDAM",4.8292,52.442,0
1714,"ZIERIKZEE",3.9185,51.6501,0
1715,"ZUTPHEN",6.19606,52.1427,1
1716,"ZWOLLE",6.08302,52.5168,1
1717,"BIALYSTOK",23.1688,53.1325,0
1718,"BIELSKO-BIALA",19.0584,49.8224,0
1719,"BOCHNIA",20.4303,49.9685,0
1720,"BRANIEWO",19.8201,54.3797,0
1721,"BRZEG",17.4668,50.8609,0
1722,"BYDGOSZCZ",18.0084,53.1235,0
1723,"CHELMNO",18.425,53.3484,0
1724,"CZESTOCHOWA",19.1203,50.8118,0
1725,"ELBLAG",19.4045,54.1561,0
1726,"GDANSK",18.6466,54.352,0
1727,"GLOGOW",16.0847,51.6636,0
1728,"GNIEZNO",17.5827,52.5349,0
1729,"GORZOWWIELKOPOLSKI",15.2369,52.7325,0
1730,"GRUDZIADZ",18.7536,53.4837,0
1731,"GUBIN",14.7285,51.949,0
1732,"JAROSLAV",16.0779,50.0122,0
1733,"JELENIAGORA",15.7194,50.9044,0
1734,"KALISZ",18.0853,51.7673,0
1735,"KAZIMIERZDOLNY",21.9542,51.318,0
1736,"KIELCE",20.6286,50.8661,0
1737,"KLODZKO",16.6614,50.4346,0
1738,"KOLOBRZEG",15.5833,54.1759,0
1739,"KOSTRZYN",14.6494,52.5872,0
1740,"KRAKOW",19.945,50.0647,0
1741,"KWIDZYN",18.9323,53.7264,0
1742,"LEGNICA",16.1553,51.207,0
1743,"LESZNO",16.5938,51.842,0
1744,"LUBAN",15.2894,51.1179,0
1745,"LUBLIN",22.5684,51.2465,0
1746,"MALBORK",19.038,54.0361,0
1747,"NOWYSACZ",20.7153,49.6175,0
1748,"NYSA",17.3296,50.4823,0
1749,"OLKUSZ",19.5657,50.2813,0
1750,"OPOLE",17.9213,50.6751,0
1751,"PLOCK",19.7065,52.5463,0
1752,"POZNAN",16.9252,52.4064,0
1753,"PRZEMYSL",22.7678,49.7839,0
1754,"RADOM",21.1471,51.4027,0
1755,"RAWICZ",16.8586,51.6095,0
1756,"RZESZOW",21.9993,50.0409,0
1757,"SANDOMIERZ",21.7502,50.6822,0
1758,"SLUPSK",17.0285,54.4641,0
1759,"STARGARDSZCZECINSKI",15.0504,53.3365,0
1760,"SULECHOW",15.6253,52.0832,0
1761,"SWIDNIK",22.6914,51.2168,0
1762,"SZCZECIN",14.5528,53.4285,0
1763,"TARNOW",20.9858,50.0121,0
1764,"TORUN",18.5984,53.0138,0
1765,"WARSZAWA",21.0122,52.2297,0
1766,"WROCLAW",17.0385,51.1079,0
1767,"WSCHOWA",16.3165,51.8071,0
1768,"ZAGAN",15.3248,51.6178,0
1769,"ZAMOSC",23.252,50.7231,0
1770,"ZIELONAGORA",15.5062,51.9356,0
1771,"ZLOTORYJA",15.9214,51.1259,0
1772,"ABRANTES",-8.19865,39.4621,0
1773,"ALMEIDA",-6.96386,40.6276,0
1774,"AROUCA",-8.2451,40.9321,0
1775,"AVEIRO",-8.65375,40.6405,0
1776,"BEJA",-7.86273,38.0153,0
1777,"BRAGA",-8.42651,41.5454,0
1778,"BRAGANCA",-6.75674,41.8061,0
1779,"CAMPO-MAIOR",-7.06792,39.0149,0
1780,"CASTELO-BRANCO",-7.50798,39.8109,0
1781,"CASTELO-DE-VIDE",-7.45407,39.4146,0
1782,"CHAVES",-7.47316,41.7418,0
1783,"COIMBRA",-8.41026,40.2033,0
1784,"CORUCHE",-8.52482,38.9603,0
1785,"COVILHA",-7.50487,40.2815,0
1786,"ELVAS",-7.16366,38.8803,0
1787,"ESTREMOZ",-7.58884,38.8425,0
1788,"EVORA",-7.9135,38.5714,0
1789,"FARO",-7.93044,37.0194,0
1790,"FIGUERA-DA-FOZ",-8.85758,40.1521,0
1791,"GUIMARAES",-8.29188,41.4427,0
1792,"ILHAVO",-8.67237,40.6023,0
1793,"LAGOS",-8.67303,37.1028,0
1794,"LAMEGO",-7.81238,41.0954,0
1795,"LEIRIA",-8.80768,39.7495,0
1796,"LISBOA",-9.13934,38.7223,0
1797,"LOULE",-8.02022,37.1379,0
1798,"MONCHIQUE",-8.55617,37.318,0
1799,"MONTEMOR-O-NOVO",-8.21229,38.6473,0
1800,"MOURA",-7.44982,38.1407,0
1801,"OBIDOS",-9.1582,39.3604,0
1802,"OLHAO",-7.84235,37.026,0
1803,"OVAR",-8.62731,40.8605,0
1804,"PALMELA",-8.90169,38.5694,0
1806,"PORTALEGRE",-7.42848,39.2967,0
1807,"PORTO",-8.62393,41.1567,0
1808,"POVOA-DE-VARZIM",-8.76093,41.3804,0
1809,"SANTAREM",-8.68599,39.2367,0
1810,"SERPA",-7.59787,37.9443,0
1811,"SETUBAL",-8.89093,38.526,0
1812,"SEZIMBRA",-9.10149,38.4442,0
1813,"SILVES",-8.44121,37.189,0
1814,"SOURE",-8.62186,40.0604,0
1815,"TAVIRA",-7.643,37.1336,0
1816,"TOMAR",-8.40431,39.6054,0
1817,"TORRES-NOVAS",-8.54044,39.4781,0
1818,"TORRES-VEDRAS",-9.26003,39.0918,0
1819,"VIANA-DO-CASTELLO",-8.83441,41.6918,0
1820,"VILA-FRANCA-DE-XIRA",-8.98899,38.9552,0
1821,"VILA-NOVA-DE-GAIA",-8.61179,41.1239,0
1822,"VILA-REAL",-7.74224,41.301,0
1823,"VILA-VICOSA",-7.41612,38.7754,0
1824,"VIZEU",-7.91571,40.7276,0
2077,"ARBOGA",15.8382,59.3937,0
2080,"GOETEBORG",11.9746,57.7089,0
2081,"HAELSINGBORG",12.6945,56.0465,0
2082,"JOENKOEPING",14.1618,57.7826,0
2083,"KALMAR",16.3568,56.6634,0
2084,"KARLSKRONA",15.5869,56.1612,0
2085,"LANDSKRONA",12.8301,55.8703,0
2086,"LINKOEPING",15.6214,58.4108,0
2087,"LUND",13.191,55.7047,0
2088,"MALMOE",13.0038,55.605,0
2089,"NORRKOEPING",16.1924,58.5877,0
2090,"OEREBRO",15.2134,59.2753,0
2091,"STOCKHOLM",18.0649,59.3289,0
2092,"UDDEVALLA",11.9356,58.3498,0
2093,"UPPSALA",17.6389,59.8586,0
2094,"VAESTERAS",16.5448,59.6099,0
2095,"VAESTERVIK",16.637,57.7577,0
2096,"VISBY",18.2948,57.6348,0
2097,"ALTSTAETTEN",9.54982,47.3778,1
2098,"BASEL",7.59755,47.5674,1
2099,"BERN",7.44461,46.9479,0
2100,"FRIBOURG",7.14557,46.8017,0
2101,"GENEVE",6.1423,46.1984,0
2102,"HERISAU",9.28248,47.387,0
2103,"LACHAUX-DE-FONDS",6.82163,47.0979,0
2104,"LAUSANNE",6.6336,46.52,0
2105,"LELOCLE",6.75179,47.057,0
2106,"LUGANO",8.95231,46.0065,0
2107,"LUZERN",8.30893,47.05,0
2108,"NEUCHATEL",6.93193,46.993,0
2109,"SCHAFFHAUSEN",8.64144,47.7078,1
2110,"SCHWYZ",8.6474,47.0198,0
2111,"SOLOTHURN",7.53795,47.2087,0
2112,"ST-GALLEN",9.3644,47.4179,0
2113,"VEVEY",6.84243,46.4627,0
2114,"WINTERTHUR",8.73756,47.4999,0
2115,"ZUERICH",8.53918,47.3686,0
2116,"BANSKABYSTRICA",19.1462,48.7363,0
2117,"BANSKASTIAVNICA",18.893,48.4587,0
2118,"BRATISLAVA",17.1071,48.1459,0
2119,"BREZOVA",17.3724,48.6775,0
2120,"BRNO",16.6068,49.1951,0
2121,"CESKEBUDEJOVICE",14.4803,48.9757,0
2122,"CESKYTESIN",18.6238,49.747,0
2123,"CHEB",12.3699,50.0795,0
2124,"EPERJES",21.2396,48.9979,0
2125,"ERSEKUJVAR",18.1641,47.9861,0
2126,"GELNICA",20.9339,48.8518,0
2127,"IGLO",20.568,48.9435,0
2128,"JIHLAVA",15.587,49.3984,0
2129,"KOLIN",15.2027,50.0273,0
2130,"KOMARNO",18.1294,47.7626,0
2131,"KOSICE",21.2578,48.721,0
2132,"KREMNICA",18.9159,48.7051,0
2133,"KUTNAHORA",15.2687,49.9524,0
2134,"LEVOCA",20.5889,49.026,0
2135,"LIBEREC",15.0543,50.7663,0
2136,"LITOMERICE",14.1305,50.5384,0
2137,"MARIANSKELAZNE",12.7012,49.9646,0
2138,"MIKULOV",16.6377,48.8053,0
2139,"MYJAVA",17.5674,48.7517,0
2140,"NITRA",18.088,48.3148,0
2141,"OLOMOUC",17.2509,49.5938,0
2142,"OPAVA",17.8948,49.9407,0
2143,"OSTRAVA",18.2625,49.8209,0
2144,"PLZEN",13.3736,49.7384,0
2145,"PRAHA",14.4378,50.0755,0
2146,"PROSTEJOV",17.1068,49.4724,0
2147,"SKALICA",17.2279,48.8461,0
2148,"STERNBERK",17.2989,49.7304,0
2149,"TRNAVA",17.5878,48.3804,0
2150,"VRATZ",14.08,49.23,0
2151,"ZNOJMO",16.0543,48.8559,0
5000,"BRAUNAU",13.0443,48.2557,0
5001,"NEUBERG",16.2596,47.169,0
5002,"CAJARC",1.84327,44.4848,0
5003,"FRESNOIS-LA-MONTAGNE",5.64675,49.4943,0
5004,"GIVRY",4.74266,46.7831,0
5005,"LEXY",5.73238,49.5006,0
5006,"MARSILLARGUES",4.179,43.6653,0
5007,"MOUSTIERS",5.62447,43.3956,0
5008,"NAVARRENX",-0.761008,43.3223,0
5009,"SAINT DENIS",2.35744,48.9362,0
5010,"SAINTE MARIE LAUMONT",-0.89984,48.921,0
5011,"ST-PIERRE-DE-SOUCY",6.10691,45.495,0
5012,"UGINE",6.41997,45.7529,0
5013,"BORAU",12.0038,51.2002,0
5014,"HARZ",10.2384,51.8095,0
5015,"HOLSTEIN",7.77001,47.424,0
5016,"LIMBURG-AM-LAHN",8.0721,50.389,0
5017,"MUHLDORF",12.522,48.2458,0
5018,"PARCHIM",11.8478,53.425,0
5019,"LOUTH",-6.4671,53.897,0
5020,"YOUGHAL",-7.84717,51.9543,0
5021,"BOBBIO",9.38595,44.7701,0
5022,"SAN GIORIO",7.1729,45.1271,0
5024,"SANDSVAER",9.63726,59.6518,0
5025,"BEIRA",-7.37035,39.4487,0
5026,"BUARCOS",-8.87488,40.1773,0
5027,"CAMINHA",-8.83785,41.8732,0
5028,"INCA",2.90755,39.7178,0
5029,"PUERTOLLANO",-4.10789,38.6884,0
5030,"SALVATIERRA",-2.38878,42.8493,0
5031,"SAN JOAN",3.03884,39.5954,0
5032,"SEU D'URGELL",1.45555,42.3576,0
5033,"VIC",2.25443,41.9304,0
5034,"MARTIGNY",7.07553,46.105,0
5035,"MONTHEY",6.94696,46.2522,0
5036,"SAINT-MAURICE",7.00479,46.2149,0
5037,"ABERGAVENNY",-3.01942,51.8254,0
5038,"ANGLESEY",-4.31058,53.2557,0
5039,"AYLESBURY",-0.8084,51.8156,0
5040,"BEDFORD",-0.466655,52.136,0
5041,"BILLINGHAM",-1.29096,54.6125,0
5042,"BISHOPS LYNN",0.423687,52.7536,0
5043,"BODMIN",-4.71886,50.4715,0
5044,"BRIGHTWELL",-1.15839,51.6104,0
5045,"CADLAND",-1.38094,50.8459,0
5046,"CAERNARVON",-4.27391,53.1395,0
5047,"CALSTOCK",-4.20205,50.497,0
5048,"CARDIGAN",-4.66086,52.0837,0
5049,"CARMARTHEN",-4.31213,51.8576,0
5050,"CHARTHAM",1.02053,51.2549,0
5051,"CLIMSLAND",-0.108159,51.5061,0
5052,"COLTISHALL",1.36535,52.728,0
5053,"CORNARD PARVA",0.769,52.018,0
5054,"CROWLAND",-0.166921,52.6763,0
5055,"CUXHAM",-1.03717,51.6525,0
5056,"DEGANWY",-3.835,53.2964,0
5057,"DOWNTON",-1.75139,50.9944,0
5058,"FINGRETH",0.3266,51.6894,0
5059,"FRODSHAM",-2.72456,53.2967,0
5060,"FUNTLEY",-1.20161,50.8708,0
5061,"GLASTONBURY",-2.71845,51.1474,0
5062,"HALESOWEN",-2.05053,52.4498,0
5063,"HERTFORD",-0.081157,51.7958,0
5064,"HIGHAM FERRERS",-0.592841,52.3074,0
5065,"HOLYWELL",-3.2251,53.276,0
5066,"HUNTINGDON",-0.182552,52.3315,0
5067,"KIBWORTH HARCOURT",-0.998679,52.544,0
5068,"LLANBERIS",-4.12755,53.118,0
5069,"MELLS",-2.39446,51.2371,0
5070,"QUOB",-1.17432,52.3555,0
5071,"SAINT ALBANS",-0.339436,51.7527,0
5072,"SWANWICK",-1.39816,53.0754,0
5073,"TILGARSLEY",-1.38301,51.7859,0
5074,"TITCHFIELD",-1.24171,50.8486,0
5075,"WALSHAMLE-WILLOWS",0.938769,52.3033,0
5076,"WITNEY",-1.48505,51.7859,0
5077,"WYCOMBE",-0.80786,51.6385,0
